CLEE,Id,Nombre,Razon_social,Clase_actividad,Estrato,Tipo_vialidad,Calle,Num_Exterior,Num_Interior,Colonia,CP,Ubicacion,Telefono,Correo_e,Sitio_internet,Tipo,Longitud,Latitud,tipo_corredor_industrial,nom_corredor_industrial,numero_local
02004461110054701010000000U7,69525,ABARROTES LUPITA,,Restaurantes con servicio de preparación de tacos y tortas,0 a 5 personas,CALLE,XICOTENCATL LEYVA ALEMAN,7569,,IGNACIO RAMIREZ,22637,"TIJUANA, Tijuana, BAJA CALIFORNIA",,,,Fijo,-117.02400684,32.47914956,,,
02004722514008991000000000U9,8362384,ACA LOS BURROS Y EL TACO,,Restaurantes con servicio de preparación de tacos y tortas,0 a 5 personas,CALLE,2,3751,21,VILLAS DEL REAL,22205,"TIJUANA, Tijuana, BAJA CALIFORNIA",,,,Fijo,-116.86264738,32.50908262,CENTRO Y PLAZA COMERCIAL,VENECIA,21
02004722514000581000000000U6,147356,AEREO TORTAS,,Restaurantes con servicio de preparación de tacos y tortas,0 a 5 personas,AVENIDA,76,1,,CENTRO URBANO70-76,22410,"TIJUANA, Tijuana, BAJA CALIFORNIA",,,,Fijo,-116.98486482,32.53704466,,,
02004722514006391000046705S4,8280322,AGUACATE,OPERADORA DE NEGOCIOS Y FRANQUICIA SA DE CV,Restaurantes con servicio de preparación de tacos y tortas,0 a 5 personas,AVENIDA,PASEO DE LOS HEROES,9550,,PLAZA RIO,22000,"TIJUANA, Tijuana, BAJA CALIFORNIA",,G.AGUACATE01@GMAIL.COM,,Fijo,-117.02035941,32.52688037,,,
02001722514002481000000000S3,7622613,ALMACEN AUXILIAR TACOS BAJA,,Restaurantes con servicio de preparación de tacos y tortas,0 a 5 personas,CALLE,SEXTA,578,,CENTRO,22800,"ENSENADA, Ensenada, BAJA CALIFORNIA",,,,Fijo,-116.62385625,31.86818466,EDIFICIO COMERCIAL Y DE SERVICIOS,SEXTA Y GASTELUM,578
02002722514000051000000000S4,81797,ALMACEN LAS BRASAS,GRUPO MALIROCA SC DE RL DE CV,Restaurantes con servicio de preparación de tacos y tortas,0 a 5 personas,CALLE,ISLA DE MADAGASCAR,,,MONTE ALBAN,21340,"MEXICALI, Mexicali, BAJA CALIFORNIA",,KARLAGCALDERAS@GMAIL.COM,,Fijo,-115.47877643,32.62075229,,,
02001722514004251000000000S8,8304482,ALMACEN TACOS EL POBLANITO,,Restaurantes con servicio de preparación de tacos y tortas,0 a 5 personas,CALLE,SEXTA,578,67,ZONA CENTRO,22800,"ENSENADA, Ensenada, BAJA CALIFORNIA",,,,Fijo,-116.62385625,31.86818466,EDIFICIO COMERCIAL Y DE SERVICIOS,SEXTA Y GASTELUM,67
02004722514005462000000000U4,7017132,AMACUECA,SIMPLEMENTE BUENOS SANDWICHES SA DE CV,Restaurantes con servicio de preparación de tacos y tortas,6 a 10 personas,CALLE,RIO BALSAS,9524,,MARRON,22045,"TIJUANA, Tijuana, BAJA CALIFORNIA",,,,Fijo,-117.02371885,32.52190257,,,
02004722514002751010000000U3,114521,ANDY S FISH TACOS,,Restaurantes con servicio de preparación de pescados y mariscos,0 a 5 personas,ANDADOR,PRIMERA (ARTICULO 123),8310,,ZONA NORTE,22000,"TIJUANA, Tijuana, BAJA CALIFORNIA",,,,Fijo,-117.03519344,32.53726705,,,
02004722514008251000000000U8,7368554,ANTOJITOS,,Restaurantes con servicio de preparación de tacos y tortas,0 a 5 personas,CALLE,QUINTA,256,0,EJIDO MATAMOROS,22204,"TIJUANA, Tijuana, BAJA CALIFORNIA",6645481916,,,Fijo,-116.85349604,32.51557723,,,
02001722514001981000000000U3,144618,ANTOJITOS BIBY,,Restaurantes con servicio de preparación de tacos y tortas,0 a 5 personas,CALLE,BENITO JUAREZ,,,NUEVO MEXICO PUNTA COLONET,22909,"EJIDO MÉXICO (PUNTA COLONET), Ensenada, BAJA CALIFORNIA",,,,Fijo,-116.20715863,31.07109149,,,
02002722514000391000000000U4,78889,ANTOJITOS CHUCHERIAS Y MAS DOÑA LUPE,,Restaurantes con servicio de preparación de tacos y tortas,0 a 5 personas,CALLE,JOSEFA ORTIZ DE DOMINGUEZ,,,ESTACION DELTA,21700,"DELTA (ESTACIÓN DELTA), Mexicali, BAJA CALIFORNIA",6862339297,,,Fijo,-115.19455192,32.35470833,,,
02004722514008321000000000U9,7368891,ANTOJITOS DE LA BOLITA,,Restaurantes con servicio de preparación de tacos y tortas,0 a 5 personas,AVENIDA,PASEO DEL GUAYCURA,,,GUAYCURA,22216,"TIJUANA, Tijuana, BAJA CALIFORNIA",,,,Fijo,-116.92204748,32.49102715,,,
02004722514001041000000000U0,122873,ANTOJITOS EMILIA,,Restaurantes con servicio de preparación de tacos y tortas,0 a 5 personas,AVENIDA,PRESIDENTE BENITO JUAREZ,6416,,XICOTENCATL LEYVA,22606,"TIJUANA, Tijuana, BAJA CALIFORNIA",,,,Fijo,-117.06526965,32.48294912,,,
02001722219001101000000000U4,144615,ANTOJITOS FANY,,Restaurantes con servicio de preparación de tacos y tortas,0 a 5 personas,CALLE,JESUS HERNANDEZ AYALA,,,PUNTA COLONET,22909,"EJIDO MÉXICO (PUNTA COLONET), Ensenada, BAJA CALIFORNIA",,,,Fijo,-116.21075286,31.06989894,,,
02003722514000681000000000U6,8728114,ANTOJITOS GEORS,,Restaurantes con servicio de preparación de tacos y tortas,0 a 5 personas,CALLE,16 DE SEPTIEMBRE,,,INDUSTRIAL,21430,"TECATE, Tecate, BAJA CALIFORNIA",,,,Fijo,-116.60998106,32.57532386,,,
02004722219018532000000000U5,155022,ANTOJITOS KARELYS,,Restaurantes con servicio de preparación de tacos y tortas,0 a 5 personas,BOULEVARD,GUSTAVO DIAZ ORDAZ,1665,,ANAHUAC,21060,"TIJUANA, Tijuana, BAJA CALIFORNIA",,,,Fijo,-116.97859229,32.50616291,MERCADO PUBLICO,MERCADO DE TODOS,M6 L32
02004722516002711000000000U2,7368717,ANTOJITOS LAURITA,ANTOJITOS LAURITA ,Restaurantes con servicio de preparación de tacos y tortas,0 a 5 personas,CALLE,ROMA,2839,0,VILLA FONTANA,22205,"TIJUANA, Tijuana, BAJA CALIFORNIA",,,,Fijo,-116.86452991,32.50872486,,,
02001722516000471000000000U1,6909322,ANTOJITOS MARY,,Restaurantes con servicio de preparación de tacos y tortas,0 a 5 personas,CALLE,LAGO ONTARIO,934,,VILLA COLONIAL,22890,"ENSENADA, Ensenada, BAJA CALIFORNIA",,,,Fijo,-116.59035436,31.82665194,,,
02004722514006781000000000U6,7344820,ANTOJITOS MEXICANOS,,Restaurantes con servicio de preparación de tacos y tortas,0 a 5 personas,CALLE,MEXICANIDAD,1603,,10 DE MAYO,22476,"TIJUANA, Tijuana, BAJA CALIFORNIA",6642017746,,,Fijo,-116.88081780,32.54049009,,,
02004722516003071000000000U0,8552164,ANTOJITOS MEXICANOS,,Restaurantes con servicio de preparación de tacos y tortas,0 a 5 personas,AVENIDA,ARIAS BERNAL (I),469,,CASTILLO,22050,"TIJUANA, Tijuana, BAJA CALIFORNIA",,,,Fijo,-117.05122655,32.53696809,,,
02004722514004901000000000U2,118019,ANTOJITOS MEXICANOS ANGELITA,,Restaurantes con servicio de preparación de tacos y tortas,0 a 5 personas,PROLONGACION,PASEO DE LOS HEROES,204,,LOS ESPAÑOLES,22438,"TIJUANA, Tijuana, BAJA CALIFORNIA",,,,Fijo,-116.97661805,32.51303618,,,
02004722514005061000000000U4,106884,ANTOJITOS MEXICANOS EL REY DEL SAZON,,Restaurantes con servicio de preparación de tacos y tortas,0 a 5 personas,AVENIDA,AVENIDA DE LAS AGUAS,23450,0,VILLA FONTANA,22205,"TIJUANA, Tijuana, BAJA CALIFORNIA",,,,Fijo,-116.86275700,32.50383541,,,
02002722514006901000000000U4,8304684,ANTOJITOS MEXICANOS LOS MORALES,,Restaurantes con servicio de preparación de tacos y tortas,0 a 5 personas,AVENIDA,LAZARO CARDENAS,,,FRACC LOS MILAGROS,21138,"MEXICALI, Mexicali, BAJA CALIFORNIA",,,,Fijo,-115.57002642,32.62192809,,,
02002722514004261000000000U5,84482,ANTOJITOS PONCHO,,Restaurantes con servicio de preparación de tacos y tortas,0 a 5 personas,BOULEVARD,LAZARO CARDENAS,2955,,PLUTARCO ELIAS CALLES,21399,"MEXICALI, Mexicali, BAJA CALIFORNIA",6863915527,,,Fijo,-115.38661295,32.61065462,CENTRO Y PLAZA COMERCIAL,PLAZA NUEVO MEXICALI,2955
02005722219000301000000000U2,142899,ANTOJITOS RUIZ,,Restaurantes con servicio de preparación de tacos y tortas,0 a 5 personas,CALLE,EUCALIPTO,3360,0,CENTRO,22710,"PLAYAS DE ROSARITO, Playas de Rosarito, BAJA CALIFORNIA",,,,Fijo,-117.05504615,32.33899540,,,
02002722514007381000000000U8,8370489,ANTOJITOS SONORA,,Restaurantes con servicio de preparación de tacos y tortas,0 a 5 personas,CALLE,RIO CULIACAN,899,,INDEPENDENCIA,21290,"MEXICALI, Mexicali, BAJA CALIFORNIA",,,,Fijo,-115.43207218,32.62939075,,,
02004722514006602000000000U4,8112340,AQUI ES TEXCOCO,,Restaurantes con servicio de preparación de tacos y tortas,6 a 10 personas,PRIVADA,NINGUNO,,,CAMPOS DEPORTIVOS,22510,"TIJUANA, Tijuana, BAJA CALIFORNIA",,,,Fijo,-116.94527853,32.53312410,,,
02001722514000241000000000U3,93996,AQUÍ SE ARMÓ EL TACO,,Restaurantes con servicio de preparación de tacos y tortas,0 a 5 personas,BOULEVARD,LAZARO CARDENAS,,,ZONA PLAYITAS,22800,"ENSENADA, Ensenada, BAJA CALIFORNIA",,,,Semifijo,-116.62360676,31.86035119,,,
02001722110000312000000000U9,77601,ASADERO,,Restaurantes con servicio de preparación de tacos y tortas,0 a 5 personas,CALLE,NINGUNO,,,VALLE VERDE,22839,"ENSENADA, Ensenada, BAJA CALIFORNIA",,,,Fijo,-116.61055517,31.88097851,,,
02002722110001625002053370M1,6284357,ASADERO ACATLÁN DE JUÁREZ,ASADERO ACATLAN DE JUAREZ SA DE CV,Restaurantes con servicio de preparación de tacos y tortas,11 a 30 personas,AVENIDA,VILLAHERMOSA,698,,ESPERANZA,21140,"MEXICALI, Mexicali, BAJA CALIFORNIA",,,,Fijo,-115.49026130,32.64451358,,,
02002722514001652000000000U8,84622,ASADERO AGUILAR,,Restaurantes con servicio de preparación de tacos y tortas,6 a 10 personas,AVENIDA,RIO SAN PEDRO MEZQUITAL,1434,,VENUSTIANO CARRANZA,21394,"MEXICALI, Mexicali, BAJA CALIFORNIA",,,,Fijo,-115.41469466,32.60899874,,,
02004722110001303000000000M1,153553,ASADERO BAJA SONORA,ASADERO BAJA SONORA ,Restaurantes con servicio de preparación de tacos y tortas,11 a 30 personas,AVENIDA,PASEO DE LOS HEROES,10051,0,ZONA RIO,22320,"TIJUANA, Tijuana, BAJA CALIFORNIA",6646346111,ASADEROBAJASONORA@GMAIL.COM,ASADEROBAJASONORA.COM.MX,Fijo,-117.01602588,32.52363830,CENTRO Y PLAZA COMERCIAL,PLAZA LAOH,10051
02004722514004873000000000S3,123190,ASADERO BAJA SONORA,,Restaurantes con servicio de preparación de tacos y tortas,11 a 30 personas,BOULEVARD,AGUA CALIENTE,1500,,CALETE,22044,"TIJUANA, Tijuana, BAJA CALIFORNIA",6643782020,,,Fijo,-117.01482121,32.51730326,,,
02002722514001392001000000U1,91729,ASADERO BERE,,Restaurantes con servicio de preparación de tacos y tortas,0 a 5 personas,PROLONGACION,HEROICO COLEGIO MILITAR,1799,,VICENTE GUERRERO,21320,"MEXICALI, Mexicali, BAJA CALIFORNIA",6864701949,,,Fijo,-115.50583356,32.61192576,,,
02002722514008471000000000U6,6972913,ASADERO BRENES,,Restaurantes con servicio de preparación de tacos y tortas,0 a 5 personas,CARRETERA,ESTATAL NUMERO 1,0,0,VENUSTIANO CARRANZA,21739,"COLONIA VENUSTIANO CARRANZA (LA CARRANZA), Mexicali, BAJA CALIFORNIA",,,,Fijo,-115.16734034,32.23395163,,,
02001722219004471000000000U8,150624,ASADERO CACHANILLA,,Restaurantes con servicio de preparación de tacos y tortas,0 a 5 personas,CARRETERA,TRANSPENIN SULAR,1196,,RODOLFO SANCHEZ TABOADA (MANEADERO),22790,"RODOLFO SÁNCHEZ TABOADA (MANEADERO), Ensenada, BAJA CALIFORNIA",6462550587,,,Fijo,-116.57294378,31.72029781,,,
02002722219002491001000000U6,148246,ASADERO CACHANILLA,,Restaurantes con servicio de preparación de tacos y tortas,0 a 5 personas,CALLE,SEXTA,480,0,GUADALUPE VICTORIA,21720,"CIUDAD GUADALUPE VICTORIA (KILÓMETRO CUARENTA Y TRES), Mexicali, BAJA CALIFORNIA",6863572106,,,Fijo,-115.10506581,32.28757434,,,
02001722514003972000000000U0,8552959,ASADERO CALIFORNIA,ASADERO CALIFORNIA ,Restaurantes con servicio de preparación de tacos y tortas,6 a 10 personas,PRIVADA,20 DE NOVIEMBRE,,,CENTRO,22800,"ENSENADA, Ensenada, BAJA CALIFORNIA",,,,Fijo,-116.62795209,31.87498524,,,
02001722514002581000000000U0,6908348,ASADERO CLUB 7,,Restaurantes con servicio de preparación de tacos y tortas,0 a 5 personas,AVENIDA,BLANCARTE,997,,ZONA CENTRO,22800,"ENSENADA, Ensenada, BAJA CALIFORNIA",6462599736,,,Fijo,-116.61916884,31.86661873,,,
02002722514001832001000000U6,90687,ASADERO COMPA VICTOR,,Restaurantes con servicio de preparación de tacos y tortas,11 a 30 personas,AVENIDA,JALISCO,,,PUEBLO NUEVO,21130,"MEXICALI, Mexicali, BAJA CALIFORNIA",,,,Fijo,-115.50555973,32.65724674,,,
02002722517001441010000000U9,59128,ASADERO DE COLORES,,Restaurantes con servicio de preparación de tacos y tortas,0 a 5 personas,AVENIDA,TAPICEROS,1702,,BUROCRATA,21010,"MEXICALI, Mexicali, BAJA CALIFORNIA",6861139647,ASADERODECOLORES@HOTMAIL.COM,,Fijo,-115.46093499,32.65269875,,,
02001722514003991000000000U0,8553074,ASADERO DEL PRADO,,Restaurantes con servicio de preparación de tacos y tortas,0 a 5 personas,CALLE,GUADALUPE VICTORIA,,,VILLAS DEL PRADO II,22895,"ENSENADA, Ensenada, BAJA CALIFORNIA",6461933478,,,Fijo,-116.58795995,31.91599288,,,
02001722514003581000000000U9,8301828,ASADERO DELANTE,,Restaurantes con servicio de preparación de tacos y tortas,0 a 5 personas,CALLE,DELANTE (EL ROSARIO),138,,BUENAVENTURA,22880,"ENSENADA, Ensenada, BAJA CALIFORNIA",,,,Fijo,-116.59400278,31.85265748,,,
02001722514004072000000000U8,8677697,ASADERO EL AYUDANTE,,Restaurantes con servicio de preparación de tacos y tortas,6 a 10 personas,BOULEVARD,BOULEVARD DE LOS LAGOS NORTE,,,VALLE DORADO,22890,"ENSENADA, Ensenada, BAJA CALIFORNIA",6462108704,,,Fijo,-116.59059689,31.82833119,,,
02002722514006042000000000U7,8320574,ASADERO EL BRIBON,,Restaurantes con servicio de preparación de tacos y tortas,6 a 10 personas,AVENIDA,MONTECASTELO,598,,CASA MAGNA,21355,"MEXICALI, Mexicali, BAJA CALIFORNIA",,,,Fijo,-115.47551965,32.59027654,,,
02002722514008061000000000U5,6915673,ASADERO EL BRO,,Restaurantes con servicio de preparación de tacos y tortas,0 a 5 personas,AVENIDA,AVENIDA DE LOS ROCIOS,,,VILLA FLORIDA,21398,"MEXICALI, Mexicali, BAJA CALIFORNIA",,,,Fijo,-115.36695835,32.60234947,,,
02002722514004662001022562S4,6734504,ASADERO EL CHAVA,LINDAS SMART DE BC S DE RL DE CV,Restaurantes con servicio de preparación de tacos y tortas,11 a 30 personas,BOULEVARD,LÁZARO CÁRDENAS,1750,0,VILLAS DEL REAL,21309,"MEXICALI, Mexicali, BAJA CALIFORNIA",,MARI_RECURSOSHUMANOS@HOTMAIL.COM,,Fijo,-115.50293377,32.62366094,,,
02002722219009552000000000S8,75243,ASADERO EL CHAVA,LINDAS SMART DE BC S DE RL DE CV,Restaurantes con servicio de preparación de tacos y tortas,11 a 30 personas,BOULEVARD,LAZARO CARDENAS,1750,0,VILLAS DEL REAL,21309,"MEXICALI, Mexicali, BAJA CALIFORNIA",6862485209,,,Fijo,-115.50441846,32.62365912,,,
02001722110000091000000000U9,64793,ASADERO EL CHORITACO,,Restaurantes con servicio de preparación de tacos y tortas,0 a 5 personas,AVENIDA,MIRAMAR,,,ZONA CENTRO,22800,"ENSENADA, Ensenada, BAJA CALIFORNIA",,,,Fijo,-116.62290587,31.86778539,,,
02002722514007702000000000U5,6914811,ASADERO EL CORRAL,,Restaurantes con servicio de preparación de tacos y tortas,6 a 10 personas,PROLONGACION,URUGUAY,0,0,SAN GABRIEL,21210,"MEXICALI, Mexicali, BAJA CALIFORNIA",,,,Fijo,-115.42142998,32.65985993,,,
02002722514002301000000000U1,77787,ASADERO EL FILETE,,Restaurantes con servicio de preparación de tacos y tortas,0 a 5 personas,CALZADA,CHETUMAL,334,,CENTRO,21850,"SAN FELIPE, Mexicali, BAJA CALIFORNIA",6861922830,,,Fijo,-114.84076293,31.02485279,,,
02002722219011212001000000U5,54261,ASADERO EL FLACO,,Restaurantes con servicio de preparación de tacos y tortas,0 a 5 personas,CARRETERA,MEXICALI-TIJUANA,,,PROGRESO,21326,"MEXICALI, Mexicali, BAJA CALIFORNIA",6861961885,,,Fijo,-115.57175050,32.58460312,,,
02002722219010542001000000U6,149483,ASADERO EL GENERAL,,Restaurantes con servicio de preparación de tacos y tortas,6 a 10 personas,CALLE,MAR CARIBE SUR,287,,SAN FELIPE,21850,"SAN FELIPE, Mexicali, BAJA CALIFORNIA",,,,Fijo,-114.84497849,31.02012584,,,
02001722514003271000000000U7,7156097,ASADERO EL GORDO,,Restaurantes con servicio de preparación de tacos y tortas,0 a 5 personas,AVENIDA,JUAN CASTRO IBARRA,0,0,OJOS NEGROS,22770,"REAL DEL CASTILLO NUEVO (OJOS NEGROS), Ensenada, BAJA CALIFORNIA",,,,Fijo,-116.27291554,31.90982319,,,
02002722514001851000000000U6,82760,ASADERO EL GRANDE,ASADERO EL GRANDE ,Restaurantes con servicio de preparación de tacos y tortas,0 a 5 personas,AVENIDA,ESTAÑO,1313,0,SATELITE,21385,"MEXICALI, Mexicali, BAJA CALIFORNIA",6861095449,,,Fijo,-115.42377427,32.59403629,,,
02002722519000601010000000U5,54292,ASADERO EL GUERO,,Restaurantes con servicio de preparación de tacos y tortas,0 a 5 personas,CALZADA,CORONEL ESTEBAN CANTU,,,PROGRESO,21326,"MEXICALI, Mexicali, BAJA CALIFORNIA",,,,Fijo,-115.58565555,32.58226034,,,
02002722514005802000000000U5,8319443,ASADERO EL MEXICALENSE,,Restaurantes con servicio de preparación de tacos y tortas,6 a 10 personas,CALZADA,CALZADA DE LAS HACIENDAS,,,AHUMADA,21327,"MEXICALI, Mexicali, BAJA CALIFORNIA",6862334677,,,Fijo,-115.49311671,32.58839586,,,
02002722514001641000000000U1,81642,ASADERO EL MEXICALENSE,,Restaurantes con servicio de preparación de tacos y tortas,0 a 5 personas,AVENIDA,JEREZ,400,,ZACATECAS,21070,"MEXICALI, Mexicali, BAJA CALIFORNIA",6865140226,ASADEROELMEXICALENSE1@GMAIL.COM,,Fijo,-115.46332218,32.62858983,,,
02001722514002191000000000U8,71837,ASADERO EL MORENO,,Restaurantes con servicio de preparación de tacos y tortas,0 a 5 personas,CALZADA,CALZADA DE LAS AGUILAS,1608,,INDEPENDENCIA,22840,"ENSENADA, Ensenada, BAJA CALIFORNIA",,,,Fijo,-116.59445831,31.86449086,,,
02001722212002871000000000U6,74991,ASADERO EL MORENO,,Restaurantes con servicio de preparación de tacos y tortas,0 a 5 personas,AVENIDA,PEDRO TERRAZAS (PAI-PAIS),,,LAZARO CARDENAS,22917,"LÁZARO CÁRDENAS (VALLE DE LA TRINIDAD), Ensenada, BAJA CALIFORNIA",6461364411,,,Fijo,-115.72878380,31.40046497,,,
02002722219011573000000000U0,65230,ASADERO EL PIRUL,,Restaurantes con servicio de preparación de tacos y tortas,11 a 30 personas,CALLE,URBANO VASQUEZ (CUARTA),,,GONZALEZ ORTEGA,21397,"MEXICALI, Mexicali, BAJA CALIFORNIA",6865623353,,,Fijo,-115.39558581,32.59621161,,,
02002722514007271000000000U1,8370233,ASADERO EL PONCE,,Restaurantes con servicio de preparación de tacos y tortas,0 a 5 personas,CARRETERA,MEXICALI SAN LUIS,,,HECHICERA,21620,"EJIDO HECHICERA, Mexicali, BAJA CALIFORNIA",,,,Fijo,-115.15698295,32.55268114,,,
02001722514003531000000000U4,8301601,ASADERO EL REY,,Restaurantes con servicio de preparación de tacos y tortas,0 a 5 personas,CARRETERA,TRANSPENINSULAR (REFORMA),,,CHAPULTEPEC,22890,"ENSENADA, Ensenada, BAJA CALIFORNIA",,,,Fijo,-116.59098525,31.78100141,,,
02002722212000491001000000U3,77752,ASADERO EL SARAPE,,Restaurantes con servicio de preparación de tacos y tortas,0 a 5 personas,CALLE,MAR CARIBE SUR,,,SAN FELIPE,21850,"SAN FELIPE, Mexicali, BAJA CALIFORNIA",,,,Fijo,-114.84127548,31.02609409,,,
02004722514009591000000000U6,9213582,ASADERO EL TACO,,Restaurantes con servicio de preparación de tacos y tortas,0 a 5 personas,CALZADA,TECNOLOGICO,14527,58,UABC,22390,"TIJUANA, Tijuana, BAJA CALIFORNIA",,ASADEROELTACO@HOTMAIL.COM,,Fijo,-116.95679382,32.53269431,EDIFICIO COMERCIAL Y DE SERVICIOS,PLAZA UNISUR,58
02001722219001331000000000U7,96059,ASADERO EL TEXANO,,Restaurantes con servicio de preparación de tacos y tortas,6 a 10 personas,CALZADA,CALZADA DE LAS AGUILAS,,,MAESTROS,22840,"ENSENADA, Ensenada, BAJA CALIFORNIA",,JVVAZQUEZ05@GMAIL.COM,,Fijo,-116.58837163,31.86537451,,,
02002722219010652001000000U3,74667,ASADERO EL TORITO,,Restaurantes con servicio de preparación de tacos y tortas,31 a 50 personas,BOULEVARD,ANAHUAC,,,JARDINES DE LAGO,21339,"MEXICALI, Mexicali, BAJA CALIFORNIA",6862535755,ASADEROELTORITOMEXICALI@GMAIL.COM,WWW.ASADEROELTORITO.COM,Fijo,-115.47925664,32.62116823,,,
02002722219005221001000000U4,57640,ASADERO EL TROMPO,,Restaurantes con servicio de preparación de tacos y tortas,6 a 10 personas,CALLE,AGUSTIN MELGAR,143,,FRACC RIO NUEVO,21100,"MEXICALI, Mexicali, BAJA CALIFORNIA",6865523253,,,Fijo,-115.49478258,32.66406540,,,
02002722219011653000000000U0,137372,ASADERO EL TURY,,Restaurantes con servicio de preparación de tacos y tortas,11 a 30 personas,BOULEVARD,BENITO JUAREZ,3800,,RESIDENCIAS,21280,"MEXICALI, Mexicali, BAJA CALIFORNIA",,,,Fijo,-115.44488112,32.62739536,,,
02001722212001851000000000U9,71087,ASADERO EL VAQUERO,,Restaurantes con servicio de preparación de tacos y tortas,0 a 5 personas,CALZADA,CORTEZ,944,,INDEPENDENCIA,22840,"ENSENADA, Ensenada, BAJA CALIFORNIA",,,,Fijo,-116.59968777,31.86127365,,,
02002722219001661000000000U5,148682,ASADERO EL WILI,,Restaurantes con servicio de preparación de tacos y tortas,0 a 5 personas,CARRETERA,ESTATAL NUMERO 1,,,VENUSTIANO CARRANZA,21739,"COLONIA VENUSTIANO CARRANZA (LA CARRANZA), Mexicali, BAJA CALIFORNIA",6863517307,,,Semifijo,-115.16739654,32.23874938,,,
02002722514005171000000000U5,6930571,ASADERO GONZALEZ,ASADERO GONZALEZ ,Restaurantes con servicio de preparación de tacos y tortas,0 a 5 personas,CALLE,CALLE DEL SOL,,,SANTA ISABEL,21139,"MEXICALI, Mexicali, BAJA CALIFORNIA",,,,Fijo,-115.57568897,32.63289691,,,
02002722514006061000000000U7,8320629,ASADERO JALISCO,,Restaurantes con servicio de preparación de tacos y tortas,0 a 5 personas,CALZADA,NINGUNO,0,0,HACIENDA DEL BOSQUE,21355,"MEXICALI, Mexicali, BAJA CALIFORNIA",6861846212,,,Fijo,-115.47046389,32.59524815,,,
02002722514005871000000000U0,8319699,ASADERO KING,,Restaurantes con servicio de preparación de tacos y tortas,0 a 5 personas,AVENIDA,ACATITA DE BAJAN,900,,INDEPENDENCIA,21290,"MEXICALI, Mexicali, BAJA CALIFORNIA",6861009276,,,Fijo,-115.43193743,32.62969417,,,
02002722219006911000000000U9,68044,ASADERO LA CARRETA,,Restaurantes con servicio de preparación de tacos y tortas,0 a 5 personas,CARRETERA,CARRETERA A SAN FELIPE,,,GRANJAS SANTA CECILIA,21386,"MEXICALI, Mexicali, BAJA CALIFORNIA",6861635739,,,Fijo,-115.41878120,32.55823567,,,
02001722219006122000000000S5,66546,ASADERO LA CHISPA,,Restaurantes con servicio de preparación de tacos y tortas,6 a 10 personas,AVENIDA,ADOLFO LOPEZ MATEOS,2074,,NUEVA ENSENADA,22840,"ENSENADA, Ensenada, BAJA CALIFORNIA",,,,Fijo,-116.60865286,31.85630654,,,
02002722219002571001000000U5,57349,ASADERO LA COSTEÑA,,Restaurantes con servicio de preparación de tacos y tortas,0 a 5 personas,CALLE,JOSE MARIA MORELOS Y PAVON,596,0,FRACC RIO NUEVO,21100,"MEXICALI, Mexicali, BAJA CALIFORNIA",,,,Fijo,-115.48903778,32.65783889,,,
02002722219010482001000000U5,66192,ASADERO LA FIESTA,,Restaurantes con servicio de preparación de tacos y tortas,6 a 10 personas,CALZADA,JUSTO SIERRA,211,,CUAUHTEMOC NORTE,21200,"MEXICALI, Mexicali, BAJA CALIFORNIA",,,,Fijo,-115.45236980,32.66570055,,,
02002722219011502000000000U9,74800,ASADERO LA FIESTA,,Restaurantes con servicio de preparación de tacos y tortas,6 a 10 personas,BOULEVARD,ANAHUAC,,,ADOLFO LOPEZ MATEOS,21339,"MEXICALI, Mexicali, BAJA CALIFORNIA",,,,Fijo,-115.47927137,32.62041150,,,
02002722514000031000000000U6,54264,ASADERO LA GRAN PROGRESO,,Restaurantes con servicio de preparación de tacos y tortas,0 a 5 personas,CARRETERA,MEXICALI-TIJUANA,,,AMPLIACION PROGRESO,21325,"MEXICALI, Mexicali, BAJA CALIFORNIA",6862429174,,,Fijo,-115.58419006,32.58150206,,,
02002722514007481000000000U6,8391808,ASADERO LA LEÑA,,Restaurantes con servicio de preparación de tacos y tortas,0 a 5 personas,CALZADA,FRANCISCO L. MONTEJANO,1488,,HEROE DE NACOZARI,21030,"MEXICALI, Mexicali, BAJA CALIFORNIA",,,,Fijo,-115.45257333,32.63816851,,,
02002722219010322001000000U3,66605,ASADERO LA MAQUINA 501,,Restaurantes con servicio de preparación de tacos y tortas,6 a 10 personas,AVENIDA,REPUBLICA DE BRASIL Y/O PROLONGACION BRASIL,401,,CUAUHTEMOC NORTE,21200,"MEXICALI, Mexicali, BAJA CALIFORNIA",,,,Fijo,-115.44370792,32.66667096,,,
02002722514003481000000000U0,81617,ASADERO LA MUÑECA,,Restaurantes con servicio de preparación de tacos y tortas,0 a 5 personas,AVENIDA,ZACATECANA,830,0,DEL RASTRO,21090,"MEXICALI, Mexicali, BAJA CALIFORNIA",6864232452,,,Fijo,-115.47000478,32.62860665,,,
02003722514000563000000000U6,7048527,ASADERO LA QUERENCIA,,Restaurantes con servicio de preparación de tacos y tortas,11 a 30 personas,BOULEVARD,RUMOROSA,,,LA RUMOROSA,21511,"LA RUMOROSA, Tecate, BAJA CALIFORNIA",6651335605,FILIBERTOSUAREZ50@HOTMAI.COM,,Fijo,-116.06439759,32.52167302,,,
02002722110000481001000000U0,60385,ASADERO LA TORMENTA DEL DESIERTO,,Restaurantes con servicio de preparación de tacos y tortas,6 a 10 personas,AVENIDA,CANTABRICO,0,0,ANAHUAC,21060,"MEXICALI, Mexicali, BAJA CALIFORNIA",1926560,,WWW.TORMENTADELDESIERTO,Fijo,-115.47409534,32.63532985,,,
02002722514000381000000000U5,138152,ASADERO LANDIN,,Restaurantes con servicio de preparación de tacos y tortas,0 a 5 personas,CALLE,MEXICALI SAN LUIS,,,PUEBLA,21620,"MEXICALI, Mexicali, BAJA CALIFORNIA",,,,Fijo,-115.34035990,32.57010746,,,
02002722514004611001000000S1,6423105,ASADERO LAS BRASAS,GRUPO MALIROCA SC DE RL,Restaurantes con servicio de preparación de tacos y tortas,31 a 50 personas,CALLE,NOVENA,,,MAYAKHAN,21376,"MEXICALI, Mexicali, BAJA CALIFORNIA",6861619541,,,Fijo,-115.38579548,32.63715640,,,
02002722219011814001000000S8,6189621,ASADERO LAS BRASAS,GRUPO MALIROCA SC DE RL DE CV,Restaurantes con servicio de preparación de tacos y tortas,31 a 50 personas,BOULEVARD,ANAHUAC,401,,MONTEALBAN,21340,"MEXICALI, Mexicali, BAJA CALIFORNIA",,KARLAGCALDERAS@GMAIL.COM,WWW.ASADEROLASBRASAS.COM,Fijo,-115.47894913,32.61996425,,,
02004722514006321000000000U1,7377998,ASADERO LAS BRAZAS,,Restaurantes con servicio de preparación de tacos y tortas,0 a 5 personas,CALLE,PASEO DE LOS VOLCANES,12371,,URBI VILLA DEL PRADO II,22170,"TIJUANA, Tijuana, BAJA CALIFORNIA",6645995532,,,Fijo,-116.97418747,32.42199185,,,
02002722514005901000000000U5,8319834,ASADERO LOS COMPAS,,Restaurantes con servicio de preparación de tacos y tortas,0 a 5 personas,CALZADA,CALZADA DE LAS AMERICAS,,,SONORA,21210,"MEXICALI, Mexicali, BAJA CALIFORNIA",6864203276,,,Fijo,-115.43517413,32.66312766,,,
02001722219006142001000000U3,72579,ASADERO LOS DOS POBLANOS,,Restaurantes con servicio de preparación de tacos y tortas,6 a 10 personas,CALZADA,CORTEZ,2167,,HIDALGO,22880,"ENSENADA, Ensenada, BAJA CALIFORNIA",,,,Fijo,-116.58477517,31.86328536,,,
02002722219011563011000000U1,138115,ASADERO LOS MOLCAJETES,,Restaurantes con servicio de preparación de tacos y tortas,6 a 10 personas,AVENIDA,IGNACIO ZARAGOZA,390,,PUEBLA,21620,"MEXICALI, Mexicali, BAJA CALIFORNIA",6862784644,,,Fijo,-115.35180559,32.56961386,,,
02002722219004851001000000U9,54260,ASADERO LOS PARIENTES,,Restaurantes con servicio de preparación de tacos y tortas,0 a 5 personas,CARRETERA,MEXICALI-TIJUANA,,,PROGRESO,21326,"MEXICALI, Mexicali, BAJA CALIFORNIA",686106324,,,Semifijo,-115.57545299,32.58258211,,,
02002722514008361000000000U9,6972712,ASADERO LOS RAMONES,,Restaurantes con servicio de preparación de tacos y tortas,0 a 5 personas,CALLE,GABRIEL LEYVA,,,EJIDO SINALOA,21620,"EJIDO SINALOA (ESTACIÓN KASEY), Mexicali, BAJA CALIFORNIA",,,,Fijo,-115.27047744,32.55144986,,,
02002722212000261000000000U0,58689,ASADERO LOS TACOACHES,,Restaurantes con servicio de preparación de tacos y tortas,0 a 5 personas,CALLE,E,,,SEGUNDA SECCION,21100,"MEXICALI, Mexicali, BAJA CALIFORNIA",,,,Fijo,-115.47051627,32.65950850,,,
02002722514001211000000000U3,84188,ASADERO LOS TRES CHILES,,Restaurantes con servicio de preparación de tacos y tortas,0 a 5 personas,AVENIDA,PASEO DEL PALMAR,,,VILLA DEL PALMAR,21378,"MEXICALI, Mexicali, BAJA CALIFORNIA",,,,Fijo,-115.38786521,32.62315396,,,
02002722514007792000000000U6,6914976,ASADERO LOS VICHYS,,Restaurantes con servicio de preparación de tacos y tortas,6 a 10 personas,CALZADA,CALZADA CETYS,0,0,RIVERA,21220,"MEXICALI, Mexicali, BAJA CALIFORNIA",6864171844,MARENNY123@HOTMAIL.COM,,Fijo,-115.40831228,32.65351160,,,
02001722514003081000000000U0,7078627,ASADERO LUISITO,,Restaurantes con servicio de preparación de tacos y tortas,0 a 5 personas,AVENIDA,MEXICO,,,AVIACION,22840,"ENSENADA, Ensenada, BAJA CALIFORNIA",,,,Fijo,-116.59464025,31.86573314,,,
02002722219010742000000000U2,65814,ASADERO MIKE,,Restaurantes con servicio de preparación de tacos y tortas,6 a 10 personas,BOULEVARD,LAZARO CARDENAS,,,CARBAJAL,21370,"MEXICALI, Mexicali, BAJA CALIFORNIA",6865822640,,,Fijo,-115.43120177,32.62466334,,,
02002722514007941000000000U9,6915323,ASADERO MIKE,,Restaurantes con servicio de preparación de tacos y tortas,0 a 5 personas,CALLE,NOVENA,,,HARO BARNETT,21390,"MEXICALI, Mexicali, BAJA CALIFORNIA",,,,Fijo,-115.38908457,32.59510509,,,
02002722219009311001000000U9,54230,ASADERO MORLAN 2,,Restaurantes con servicio de preparación de tacos y tortas,11 a 30 personas,CALZADA,CORONEL ESTEBAN CANTU,,,ZONA PROGRESO,21325,"MEXICALI, Mexicali, BAJA CALIFORNIA",6862429174,,,Fijo,-115.58767907,32.58270165,,,
02002722212003171000000000U8,54259,ASADERO NANDO,,Restaurantes con servicio de preparación de tacos y tortas,0 a 5 personas,CARRETERA,MEXICALI-TIJUANA,,,PROGRESO,21326,"MEXICALI, Mexicali, BAJA CALIFORNIA",6862318444,,,Fijo,-115.57597606,32.58234989,,,
02002722514001121000000000U4,79887,ASADERO PEPE,,Restaurantes con servicio de preparación de tacos y tortas,0 a 5 personas,CARRETERA,CARRETERA A SAN FELIPE,,,GRANJAS SANTA CECILIA,21386,"MEXICALI, Mexicali, BAJA CALIFORNIA",6861408060,,,Fijo,-115.41911685,32.55912341,,,
02005722514000913000000000U8,8317116,ASADERO PEPES,ASADERO PEPES ,Restaurantes con servicio de preparación de tacos y tortas,11 a 30 personas,BOULEVARD,BENITO JUAREZ,87,,ROSARITO,22703,"PLAYAS DE ROSARITO, Playas de Rosarito, BAJA CALIFORNIA",,,,Fijo,-117.05957472,32.35216550,,,
02002722514007281000000000U0,8370235,ASADERO PUENTES,,Restaurantes con servicio de preparación de tacos y tortas,0 a 5 personas,CARRETERA,MEXICALI SAN LUIS,,,HECHICERA,21620,"EJIDO HECHICERA, Mexicali, BAJA CALIFORNIA",,,,Fijo,-115.15259187,32.55237990,,,
02002722514006631000000000U7,8112927,ASADERO REPORTADOS,,Restaurantes con servicio de preparación de tacos y tortas,0 a 5 personas,BOULEVARD,BENITO JUAREZ,,,FRACC REFORMA,21280,"MEXICALI, Mexicali, BAJA CALIFORNIA",6862327298,VICKY011208@HOTMAIL.COM,,Fijo,-115.44705744,32.63312804,,,
02002722514001891000000000U2,82327,ASADERO RÍO,,Restaurantes con servicio de preparación de tacos y tortas,0 a 5 personas,CALZADA,SAN MIGUEL EL GRANDE,560,,HIDALGO,21389,"MEXICALI, Mexicali, BAJA CALIFORNIA",6863305471,,,Fijo,-115.45377631,32.62312382,"TIANGUIS, BAZAR O PULGA",NUEVO MEXICALI,3 Y 4
02002722514009011000000000U9,9128996,ASADERO RIVIERA,,Restaurantes con servicio de preparación de tacos y tortas,0 a 5 personas,CALZADA,CHETUMAL,,,SAN FELIPE,21850,"SAN FELIPE, Mexicali, BAJA CALIFORNIA",,,,Fijo,-114.83472764,31.02320672,,,
02002722219002611000000000U9,68424,ASADERO SONORA,,Restaurantes con servicio de preparación de tacos y tortas,0 a 5 personas,CALLE,13 DE SEPTIEMBRE,,,LOS NARANJOS,21386,"MEXICALI, Mexicali, BAJA CALIFORNIA",6868423477,,,Fijo,-115.43887927,32.59079012,,,
02002722514003591000000000U6,82991,ASADERO STEAK,,Restaurantes con servicio de preparación de tacos y tortas,0 a 5 personas,CALLE,FRANCISCO JAVIER DEL CASTILLO,296,,SOLIDARIDAD SOCIAL,21387,"MEXICALI, Mexicali, BAJA CALIFORNIA",,,,Fijo,-115.44715222,32.58392701,,,
02001722514000741000000000U2,71994,ASADERO TACO LOCO,,Restaurantes con servicio de preparación de tacos y tortas,0 a 5 personas,CALZADA,CORTEZ,1714,,HIDALGO,22880,"ENSENADA, Ensenada, BAJA CALIFORNIA",,,,Fijo,-116.59356645,31.86201036,,,
02002722514000551000000000U3,88370,ASADERO TEJABAN,,Restaurantes con servicio de preparación de tacos y tortas,0 a 5 personas,CALLE,RIO CULIACAN,991,,PROHOGAR,21240,"MEXICALI, Mexicali, BAJA CALIFORNIA",,,,Fijo,-115.43281669,32.65516014,,,
02002722514008951000000000U7,9127956,ASADERO TRINIDAD,,Restaurantes con servicio de preparación de tacos y tortas,0 a 5 personas,CALZADA,CALZADA DE LOS INSURGENTES,,,GUADALUPE VICTORIA,21720,"CIUDAD GUADALUPE VICTORIA (KILÓMETRO CUARENTA Y TRES), Mexicali, BAJA CALIFORNIA",6861901236,,,Semifijo,-115.09968463,32.28734906,,,
02002722219003341000000000U2,143086,ASADERO VEIRAS,,Restaurantes con servicio de preparación de tacos y tortas,0 a 5 personas,CALLE,MEXICALI SAN LUIS,0,0,CUERNAVACA,21624,"MEXICALI, Mexicali, BAJA CALIFORNIA",,MONNYCA46@HOTMAIL.COM,,Fijo,-115.30908282,32.55966703,,,
02002722514001371000000000U5,92556,ASADERO VICRTOR,,Restaurantes con servicio de preparación de tacos y tortas,0 a 5 personas,PROLONGACION,HEROICO COLEGIO MILITAR,1272,0,FRACC VOLUNTAD,21323,"MEXICALI, Mexicali, BAJA CALIFORNIA",,,,Semifijo,-115.50619113,32.59912844,,,
02001722514002811000000000U1,6929696,ASADERO Y BIRRIERIA EL VIEJO PETER,,Restaurantes con servicio de preparación de tacos y tortas,0 a 5 personas,CARRETERA,TRANSPENINSULAR (REFORMA),,,POBLADO CHAPULTEPEC,22785,"ENSENADA, Ensenada, BAJA CALIFORNIA",,,,Fijo,-116.59039262,31.77798615,,,
02005722514001071000000000U4,9352621,ASADERO Y BIRRIERIA PEPES,ASADERO Y BIRRIERIA PEPES ,Restaurantes con servicio de preparación de tacos y tortas,0 a 5 personas,BOULEVARD,BENITO JUAREZ,,,VILLA FLORESTA,22710,"PLAYAS DE ROSARITO, Playas de Rosarito, BAJA CALIFORNIA",,ASADEROPEPES@HOTMAIL.COM,,Fijo,-117.06102106,32.37003055,,,
02002722514006821000000000U4,7803994,ASADERO Y CARNITAS SANDRA,,Restaurantes con servicio de preparación de tacos y tortas,0 a 5 personas,CALZADA,SAN MIGUEL EL GRANDE,560,10,HIDALGO,21389,"MEXICALI, Mexicali, BAJA CALIFORNIA",,,,Fijo,-115.45377631,32.62312382,"TIANGUIS, BAZAR O PULGA",NUEVO MEXICALI,10
02002722219009772001000000U2,59101,ASADERO ZAID,,Restaurantes con servicio de preparación de tacos y tortas,6 a 10 personas,AVENIDA,CARROCEROS,1401,,INDUSTRIAL,21010,"MEXICALI, Mexicali, BAJA CALIFORNIA",,,,Fijo,-115.46737426,32.65329663,,,
02005722514000572000000000U2,132071,ASADEROS PEPE Y PEPES AMBURGUESAS,,Restaurantes con servicio de preparación de tacos y tortas,6 a 10 personas,BOULEVARD,BENITO JUAREZ,87,,ROSARITO,22703,"PLAYAS DE ROSARITO, Playas de Rosarito, BAJA CALIFORNIA",,,,Semifijo,-117.05957837,32.35213716,,,
02002722514007183000000000U8,8369976,ASADOR MEXQUITE,,Restaurantes con servicio de preparación de tacos y tortas,11 a 30 personas,AVENIDA,REPUBLICA DE BRASIL Y/O PROLONGACION BRASIL,,,RES HIPICO,21200,"MEXICALI, Mexicali, BAJA CALIFORNIA",,CONTABILIDAD@FERBIS.COM,,Fijo,-115.43707595,32.66699376,,,
02001722514004291000000000U4,9252932,AY  PAPANTLA,,Restaurantes con servicio de preparación de tacos y tortas,0 a 5 personas,AVENIDA,CARRETERA TRANSPENINSULAR,,,RODOLFO SANCHEZ TABOADA MANEADERO,22790,"RODOLFO SÁNCHEZ TABOADA (MANEADERO), Ensenada, BAJA CALIFORNIA",,,,Semifijo,-116.57039904,31.71059567,,,
02002722514002941000000000U4,82925,AZADERO VIDAURRI,,Restaurantes con servicio de preparación de tacos y tortas,0 a 5 personas,AVENIDA,GENERAL SANTIAGO VIDAURRI,1000,4,SOLIDARIDAD SOCIAL ZONA 1,21387,"MEXICALI, Mexicali, BAJA CALIFORNIA",,,,Fijo,-115.44092358,32.58705690,,,
02004722514004163000000000U9,114874,AZTECAS TAQUERIA Y COFFEE SHOP,,Restaurantes con servicio de preparación de tacos y tortas,11 a 30 personas,ANDADOR,SANTIAGO ARGUELLO,733,,ZONA NORTE,22000,"TIJUANA, Tijuana, BAJA CALIFORNIA",6646880416,LIC.ERICKHERNANDEZ@GMAIL.COM,,Fijo,-117.03822734,32.53548336,,,
02004722514009021000000000U4,8362505,B Y G DELI,,Restaurantes con servicio de preparación de tacos y tortas,0 a 5 personas,AVENIDA,ZARAGOZA,2,,VILLA FONTANA 1RA SECC,22205,"TIJUANA, Tijuana, BAJA CALIFORNIA",6645246927,,,Fijo,-116.86600197,32.51006385,,,
02004722514008061000000000U1,7138145,BAJA BBQ PIT,,Restaurantes con servicio de preparación de tacos y tortas,0 a 5 personas,BOULEVARD,MANUEL J. CLOUTHIER,18561,0,EL LAGO,22490,"TIJUANA, Tijuana, BAJA CALIFORNIA",,,,Fijo,-116.91868038,32.49968001,CENTRO Y PLAZA COMERCIAL,PLAZA MONARCA,C-90
02001722212002551000000000U4,61592,BAJA BURRO,,Restaurantes con servicio de preparación de tacos y tortas,0 a 5 personas,CALLE,TERCERA SUR,,,PLAYAS DE CHAPULTEPEC,22785,"ENSENADA, Ensenada, BAJA CALIFORNIA",6461943439,BIGBURROENS@HOTMAIL.COM,,Fijo,-116.60414270,31.78139054,,,
02001722514004311000000000U0,9252945,BAJA FISH TACO,,Restaurantes con servicio de preparación de tacos y tortas,0 a 5 personas,CALLE,NINGUNO,,,CORONEL ESTEBAN CANTU,22974,"CORONEL ESTEBAN CANTÚ, Ensenada, BAJA CALIFORNIA",,,,Fijo,-116.64237376,31.70689894,,,
02002722514007951000000000U8,6915326,BARBACOA,,Restaurantes con servicio de preparación de tacos y tortas,0 a 5 personas,CALLE,NOVENA,,,HARO BARNETT,21390,"MEXICALI, Mexicali, BAJA CALIFORNIA",6861139237,,,Fijo,-115.38901947,32.59823881,,,
02001722514000381000000000U7,100973,BARBACOA EL TIO,,Restaurantes con servicio de preparación de tacos y tortas,0 a 5 personas,CALLE,DELANTE (EL ROSARIO),293,,CUAHUTEMOC,22890,"ENSENADA, Ensenada, BAJA CALIFORNIA",6461432322,,,Fijo,-116.59321273,31.85262504,,,
02004722514006811000000000U1,7344911,BERRY COMIDA MEXICANA,,Restaurantes con servicio de preparación de tacos y tortas,0 a 5 personas,CALLE,NINGUNO,1900,,LA PECHUGA,22425,"TIJUANA, Tijuana, BAJA CALIFORNIA",6641179337,BERRYCOMIDAMX@GMAIL.COM,,Fijo,-116.95359314,32.53158730,,,
02001722514002711000000000S3,6909034,BIERRIERIA RODRIGUEZ,,Restaurantes con servicio de preparación de tacos y tortas,0 a 5 personas,CALLE,ESMERALDA,1010,,COSTA BELLA,22890,"ENSENADA, Ensenada, BAJA CALIFORNIA",,,,Fijo,-116.59093469,31.84817076,,,
02002722514000021000000000U7,89330,BIG DOGOS,,Restaurantes con servicio de preparación de tacos y tortas,0 a 5 personas,CALLE,BERNARDO REYES,,,FLORE MAGON,21220,"MEXICALI, Mexicali, BAJA CALIFORNIA",,,,Fijo,-115.40326705,32.66054232,,,
02003722513000391000000000U4,7048766,BIRRERIA EL REY DEL TACO,,Restaurantes con servicio de preparación de antojitos,0 a 5 personas,AVENIDA,TENOCHTITLAN,360,,LAS HUERTAS,21470,"TECATE, Tecate, BAJA CALIFORNIA",,,,Semifijo,-116.61720681,32.57071180,,,
02005722219000921000000000U7,140615,BIRRIA DE RES Y TACOS SAN JOSE,,Restaurantes con servicio de preparación de antojitos,0 a 5 personas,CALLE,LAZARO MORALES,886,,LUCIO BLANCO,22706,"PLAYAS DE ROSARITO, Playas de Rosarito, BAJA CALIFORNIA",,,,Fijo,-117.05186891,32.38605587,,,
02002722513005022000000000U2,9115892,BIRRIA Y TACOS EL BATIS,BIRRIA Y TACOS EL BATIS ,Restaurantes con servicio de preparación de antojitos,6 a 10 personas,CALLE,MAR CARIBE SUR,0,239,SAN FELIPE,21850,"SAN FELIPE, Mexicali, BAJA CALIFORNIA",6863832689,J.LUIS7212@HOTMAIL.COM,,Fijo,-114.84374937,31.02255557,,,
02002722514002101010000000U5,77815,BIRRIA Y TACOS EL MACAPUL,,Restaurantes con servicio de preparación de antojitos,0 a 5 personas,CALZADA,CHETUMAL,,,SAN FELIPE,21850,"SAN FELIPE, Mexicali, BAJA CALIFORNIA",,,,Fijo,-114.83979297,31.02479305,,,
02004722212008301000000000U2,151234,BIRRIERÍA TACOS HECTOR,,Restaurantes con servicio de preparación de antojitos,0 a 5 personas,AVENIDA,JOSE MARIA PINO SUAREZ,1675,0,LIBERTAD PARTE BAJA,22480,"TIJUANA, Tijuana, BAJA CALIFORNIA",6646824651,,,Fijo,-117.00865644,32.53422744,CENTRO Y PLAZA COMERCIAL,CENTRO Y PLAZA COMERCIAL SIN NOMBRE,1675
02004722513002751001000000U5,103677,BIRRIERIA Y TACOS EL PAISA,,Restaurantes con servicio de preparación de antojitos,6 a 10 personas,BOULEVARD,PASEO DE LOS LURELES,36008,,LAURELES II,22253,"TIJUANA, Tijuana, BAJA CALIFORNIA",,,,Fijo,-116.82728754,32.45701511,,,
02004722514005411000000000U1,7016868,BODEGA,,Restaurantes con servicio de preparación de tacos y tortas,0 a 5 personas,CALLE,BAJA CALIFORNIA,7751,,ZONA NORTE,22000,"TIJUANA, Tijuana, BAJA CALIFORNIA",,,,Fijo,-117.04422562,32.53869857,,,
02004722514009611000000000S2,8551916,BODEGA DE TACOS BARRANQUITA,,Restaurantes con servicio de preparación de tacos y tortas,0 a 5 personas,BOULEVARD,AGUA CALIENTE,,,REVOLUCION,22015,"TIJUANA, Tijuana, BAJA CALIFORNIA",,,,Fijo,-117.01584177,32.51801522,,,
02004722514005451000000000S7,7017076,BODEGA DE TORTAS CUBANAS,,Restaurantes con servicio de preparación de tacos y tortas,0 a 5 personas,CALLE,RIO BRAVO,2350,0,REVOLUCION,22015,"TIJUANA, Tijuana, BAJA CALIFORNIA",,,,Fijo,-117.02069111,32.52101444,,,
02004722514007081000000000S0,8316626,BODEGA SIN NOMBRE,,Restaurantes con servicio de preparación de tacos y tortas,0 a 5 personas,AVENIDA,FRANCISCO I. MADERO,,,ZONA CENTRO,22000,"TIJUANA, Tijuana, BAJA CALIFORNIA",,,,Fijo,-117.03547195,32.53576994,,,
02004722514000221000000000S9,114906,BODEGA TACOS CHAVEZ,,Restaurantes con servicio de preparación de tacos y tortas,0 a 5 personas,AVENIDA,MIGUEL NEGRETE,885,,ZONA CENTRO,22000,"TIJUANA, Tijuana, BAJA CALIFORNIA",,MARISCOS.CHAVEZ@GMAIL.COM,,Fijo,-117.03373278,32.53462127,,,
02004722514002671000000000S3,129494,"BODEGA, PREPARAN CARNE PARA TAQUERIAS",,Restaurantes con servicio de preparación de tacos y tortas,0 a 5 personas,CALLEJON,HELARA,0,,SANCHES TABOADA,22185,"TIJUANA, Tijuana, BAJA CALIFORNIA",,,,Fijo,-116.97340777,32.45800966,,,
02004722514006682000000000U6,7344590,BOL CORONA,MARNAPA ,Restaurantes con servicio de preparación de tacos y tortas,6 a 10 personas,OTRO (ESPECIFIQUE),NINGUNO,,,NUEVA TIJUANA,22435,"TIJUANA, Tijuana, BAJA CALIFORNIA",,,,Fijo,-116.97475297,32.54552369,,,
02004722514000092000000000S4,127897,BOL CORONA,,Restaurantes con servicio de preparación de tacos y tortas,6 a 10 personas,BOULEVARD,BOULEVARD DE LOS FUNDADORES,6715,1,TERRAZAS DEL RUBI,22180,"TIJUANA, Tijuana, BAJA CALIFORNIA",,FUNDADORES@BOLCORONA.COM,WWW.BOLCORONA.COM,Fijo,-117.03577186,32.48324458,CENTRO Y PLAZA COMERCIAL,PLAZA DUBAI,1
02004722219014802001000000S6,61137,BOL CORONA BURRITOS,,Restaurantes con servicio de preparación de tacos y tortas,11 a 30 personas,BOULEVARD,AGUA CALIENTE,3,,MARRON ZONA RIO,22010,"TIJUANA, Tijuana, BAJA CALIFORNIA",6646864635,PORTALES@BOLCORONA.COM,,Fijo,-117.02230260,32.52085913,,,
02004722514008551000000000U1,6959652,BRASA,,Restaurantes con servicio de preparación de tacos y tortas,0 a 5 personas,AVENIDA,REVOLUCION,1263,9,ZONA CENTRO,22000,"TIJUANA, Tijuana, BAJA CALIFORNIA",,LUIS.GC2912@GMAIL.COM,,Fijo,-117.03649741,32.53041292,,,
02004722514000841000000000U4,117810,BRASERO,,Restaurantes con servicio de preparación de tacos y tortas,0 a 5 personas,PROLONGACION,20 DE NOVIEMBRE,,,20 DE NOVIEMBRE,22100,"TIJUANA, Tijuana, BAJA CALIFORNIA",6643075819,,,Fijo,-116.99235725,32.51178446,,,
02001722514002521000000000U6,6907946,BUENOS AIRES ASADORES ARGENTINOS,,Restaurantes con servicio de preparación de tacos y tortas,0 a 5 personas,AVENIDA,JUAN ALDAMA,0,0,OBRERA,22830,"ENSENADA, Ensenada, BAJA CALIFORNIA",,,,Fijo,-116.60779918,31.86352036,,,
02001722514004051000000000U2,8677397,BURRITOS,,Restaurantes con servicio de preparación de tacos y tortas,0 a 5 personas,AVENIDA,DIAMANTE,0,0,AMPL HIDALGO,22880,"ENSENADA, Ensenada, BAJA CALIFORNIA",,,,Fijo,-116.57945663,31.85942738,,,
02004722514003891000000000U6,113203,BURRITOS,,Restaurantes con servicio de preparación de tacos y tortas,0 a 5 personas,CALLE,VIA RAPIDA PONIENTE,6400,87,YAMILLE,22114,"TIJUANA, Tijuana, BAJA CALIFORNIA",,,,Fijo,-116.94427543,32.49615516,CENTRAL DE ABASTO,CENTRAL DE ABASTOS,87
02004722219014331000000000U6,138866,BURRITOS ALEX,,Restaurantes con servicio de preparación de tacos y tortas,0 a 5 personas,AVENIDA,ENSENADA,20026,,BUENOS AIRES NORTE,22580,"TIJUANA, Tijuana, BAJA CALIFORNIA",,,,Fijo,-116.89418031,32.51333400,,,
02004722514005431000000000U9,7017046,BURRITOS ANDREA,,Restaurantes con servicio de preparación de tacos y tortas,0 a 5 personas,AVENIDA,FERROCARRIL,402,0,LIBERTAD PARTE BAJA,22300,"TIJUANA, Tijuana, BAJA CALIFORNIA",,,,Fijo,-117.02358141,32.54034195,,,
02002722514007421000000000U2,8370551,BURRITOS ARTURO,,Restaurantes con servicio de preparación de tacos y tortas,0 a 5 personas,AVENIDA,MISION DE SAN DIEGO,,,FRACC MISION DEL VALLE,21376,"MEXICALI, Mexicali, BAJA CALIFORNIA",,,,Fijo,-115.39423198,32.63487525,,,
02002722514005571000000000U6,6941468,BURRITOS BOMBON,,Restaurantes con servicio de preparación de tacos y tortas,0 a 5 personas,CARRETERA,CARRETERA A SAN FELIPE,,,GRANJAS SANTA CECILIA,21386,"MEXICALI, Mexicali, BAJA CALIFORNIA",,,,Semifijo,-115.42113942,32.56449124,,,
02002722514005491000000000U7,6941351,BURRITOS BUBAS,,Restaurantes con servicio de preparación de tacos y tortas,0 a 5 personas,CARRETERA,CARRETERA A SAN FELIPE,0,0,AMPL SIERRA,21389,"MEXICALI, Mexicali, BAJA CALIFORNIA",6861581654,,,Fijo,-115.43802039,32.61007197,,,
02004722514007341000000000U8,8403068,BURRITOS BURREN KING,,Restaurantes con servicio de preparación de tacos y tortas,0 a 5 personas,BOULEVARD,GUSTAVO DIAZ ORDAZ,,,GUADALAJARA (LA MESA),22115,"TIJUANA, Tijuana, BAJA CALIFORNIA",6643603769,,,Fijo,-116.95616403,32.49293843,,,
02002722212006431000000000U3,72299,BURRITOS CABORCA,,Restaurantes con servicio de preparación de tacos y tortas,0 a 5 personas,CALZADA,LICENCIADO VICENTE LOMBARDO TOLEDANO,,,GOMEZ FARIAS,21350,"MEXICALI, Mexicali, BAJA CALIFORNIA",6861225107,CSOQUI@HOTMAIL.COM,,Fijo,-115.47254763,32.61125020,,,
02002722514008221000000000U5,6915940,BURRITOS CAJEME,,Restaurantes con servicio de preparación de tacos y tortas,0 a 5 personas,AVENIDA,RIO SANTA CRUZ,0,0,GONZALEZ ORTEGA,21270,"MEXICALI, Mexicali, BAJA CALIFORNIA",,,,Fijo,-115.39542884,32.61435712,,,
02002722514003891000000000U0,82325,BURRITOS CHEPINA,,Restaurantes con servicio de preparación de tacos y tortas,0 a 5 personas,CALZADA,SAN MIGUEL EL GRANDE,560,8,HIDALGO,21389,"MEXICALI, Mexicali, BAJA CALIFORNIA",,,,Fijo,-115.45377631,32.62312382,"TIANGUIS, BAZAR O PULGA",NUEVO MEXICALI,9
02001722514004111000000000U4,9067914,BURRITOS DE GUISADO LAS 3 CHIQUILLAS,,Restaurantes con servicio de preparación de tacos y tortas,0 a 5 personas,CALZADA,CORTEZ,212,,BAHIA,22880,"ENSENADA, Ensenada, BAJA CALIFORNIA",,,,Fijo,-116.60475582,31.86035729,,,
02002311812000581000000000U5,61658,BURRITOS DE GUISADO SIN NOMBRE,,Restaurantes con servicio de preparación de tacos y tortas,0 a 5 personas,CALLE,CAMPECHE,810,,ESPERANZA,21140,"MEXICALI, Mexicali, BAJA CALIFORNIA",6861712977,,,Fijo,-115.49162810,32.64676427,,,
02001722514003341000000000U8,8304312,BURRITOS DE LA 10,,Restaurantes con servicio de preparación de tacos y tortas,0 a 5 personas,AVENIDA,JUNIPERO SERRA,,,BONIFAZ POPOFF,22840,"ENSENADA, Ensenada, BAJA CALIFORNIA",6461926905,,,Fijo,-116.59312010,31.86892097,,,
02004722514000461000000000U1,117883,BURRITOS DE LA 20,,Restaurantes con servicio de preparación de tacos y tortas,0 a 5 personas,BOULEVARD,BOULEVARD DE LAS AMERICAS,318,,ANEXA 20 DE NOVIEMBRE,22100,"TIJUANA, Tijuana, BAJA CALIFORNIA",6646813664,,,Fijo,-116.98698599,32.51189047,,,
02004722514001561000000000U7,119122,BURRITOS DEL RIO,,Restaurantes con servicio de preparación de tacos y tortas,0 a 5 personas,CALLE,MISION DE LORETO,3031,1,ZONA URBANA RIO TIJUANA,22010,"TIJUANA, Tijuana, BAJA CALIFORNIA",6643988208,GOMERAMONA1@HOTMAIL.COM,,Fijo,-117.00878969,32.51883181,,,
02004722212006801000000000U3,151907,BURRITOS DON BRAULIO,,Restaurantes con servicio de preparación de tacos y tortas,0 a 5 personas,CALLE,CUARTA Y /O SERAPIO RENDON,325,0,LIBERTAD PARTE BAJA,22300,"TIJUANA, Tijuana, BAJA CALIFORNIA",6642943679,,,Semifijo,-117.02137693,32.54086508,,,
02004722219006451001000000U2,150471,BURRITOS DON BURRO,,Restaurantes con servicio de preparación de tacos y tortas,6 a 10 personas,CALLE,SANTA MARTHA,605,,EX-EJIDO TAMPICO,22426,"TIJUANA, Tijuana, BAJA CALIFORNIA",6642586020,,,Fijo,-116.98449228,32.52159327,,,
02004722514002741000000000U4,123078,BURRITOS DON PEPE,,Restaurantes con servicio de preparación de tacos y tortas,0 a 5 personas,AVENIDA,CUAUHTEMOC SUR PONIENTE,2647,1,ZONA RIO,22190,"TIJUANA, Tijuana, BAJA CALIFORNIA",6646818406,,,Fijo,-117.02231495,32.51845747,,,
02001722514000651000000000U3,99820,BURRITOS EL CADILAC,,Restaurantes con servicio de preparación de tacos y tortas,0 a 5 personas,CALLE,NINGUNO,38,,POBLADO CHAPULTEPEC,22785,"ENSENADA, Ensenada, BAJA CALIFORNIA",6461286055,,,Fijo,-116.59034166,31.78303925,,,
02004722514008361000000000U5,7369110,BURRITOS EL MAS PERRON,,Restaurantes con servicio de preparación de tacos y tortas,0 a 5 personas,CALLE,20 DE NOVIEMBRE,0,0,LOMAS DE MATAMOROS,22206,"TIJUANA, Tijuana, BAJA CALIFORNIA",,,,Fijo,-116.88688297,32.50724599,,,
02004722514007951000000000U4,9035850,BURRITOS EL PEKE,,Restaurantes con servicio de preparación de tacos y tortas,0 a 5 personas,AVENIDA,VIA RAPIDA ORIENTE,,,GUADALUPE VICTORIA,22415,"TIJUANA, Tijuana, BAJA CALIFORNIA",71915635,,,Fijo,-116.97849140,32.51670348,,,
02001722514003451000000000U5,8301223,BURRITOS EL SEÑOR GUISADO,,Restaurantes con servicio de preparación de tacos y tortas,0 a 5 personas,CALLE,CORAL,0,0,AVIACION,22840,"ENSENADA, Ensenada, BAJA CALIFORNIA",,,,Fijo,-116.60708886,31.86483435,,,
02005722514000841000000000U1,6948952,BURRITOS EL TEXANO,,Restaurantes con servicio de preparación de tacos y tortas,0 a 5 personas,CALLE,FAUSTINO ALVARADO,1597,0,LUCIO BLANCO,22706,"PLAYAS DE ROSARITO, Playas de Rosarito, BAJA CALIFORNIA",6611086798,,,Fijo,-117.05601015,32.37629377,,,
02002722514008771000000000U9,6973598,BURRITOS EL TREMENDO,,Restaurantes con servicio de preparación de tacos y tortas,0 a 5 personas,CALLE,TERCERA,,,GUDALUPE VICTORIA KILOMETRO CUARENTA Y TRES,21720,"CIUDAD GUADALUPE VICTORIA (KILÓMETRO CUARENTA Y TRES), Mexicali, BAJA CALIFORNIA",,,,Fijo,-115.10525149,32.28472010,,,
02001722514003311000000000U1,8796483,BURRITOS EVELIA,,Restaurantes con servicio de preparación de tacos y tortas,0 a 5 personas,CALLE,IGNACIO ALLENDE,215,0,POPULAR DOS,22819,"ENSENADA, Ensenada, BAJA CALIFORNIA",6462157748,,,Fijo,-116.60562319,31.89111566,,,
02004722514008781000000000U4,8551735,BURRITOS EXPRES,,Restaurantes con servicio de preparación de tacos y tortas,0 a 5 personas,AVENIDA,PASEO PLAYAS DE TIJUANA,,,PLAYAS TIJUANA SECC TRIANGULO DE ORO,22506,"TIJUANA, Tijuana, BAJA CALIFORNIA",6646997501,,,Fijo,-117.12055065,32.50980897,,,
02004722514006431000000000U8,8728025,BURRITOS EXPRESS,,Restaurantes con servicio de preparación de tacos y tortas,0 a 5 personas,CALLE,PASEO AGUILA AZTECA,19323,,BAJA MAQ EL AGUILA,22215,"TIJUANA, Tijuana, BAJA CALIFORNIA",6643596124,ELBURRITOEXPRESS@HOTMAIL.COM,,Fijo,-116.90494950,32.49492136,,,
02004722514008792000000000U1,8551791,BURRITOS EXPRESS,,Restaurantes con servicio de preparación de tacos y tortas,6 a 10 personas,CALLE,CALLE DEL CRESTON,,,COSTA HERMOSA,22506,"TIJUANA, Tijuana, BAJA CALIFORNIA",6646997501,,,Fijo,-117.11697882,32.50939876,,,
02001722514002541000000000U4,6907987,BURRITOS FILEMON,,Restaurantes con servicio de preparación de tacos y tortas,0 a 5 personas,AVENIDA,FRAY JUNIPERO SERRA,1311,0,MISION,22830,"ENSENADA, Ensenada, BAJA CALIFORNIA",,,,Fijo,-116.61185869,31.87000632,,,
02004722514008301000000000U1,7368781,BURRITOS GUADALAJARA,,Restaurantes con servicio de preparación de tacos y tortas,0 a 5 personas,AVENIDA,VENECIA,2705,,VILLA FONTANA,22205,"TIJUANA, Tijuana, BAJA CALIFORNIA",,,,Fijo,-116.86841540,32.51011554,,,
02001722514004301000000000U1,9252966,BURRITOS JM,,Restaurantes con servicio de preparación de tacos y tortas,0 a 5 personas,CALLE,NINGUNO,,,EL ROSARIO DE ARRIBA,22960,"EL ROSARIO DE ARRIBA                                                                                          , San Quintín, BAJA CALIFORNIA",,,,Fijo,-115.71224095,30.06896566,,,
02004722514007241000000000U0,8317293,BURRITOS JORGITO,,Restaurantes con servicio de preparación de tacos y tortas,0 a 5 personas,CALLE,MARTIRES DE CHICAGO,143,3,OBRERA 2 SECCION,22180,"TIJUANA, Tijuana, BAJA CALIFORNIA",,,,Fijo,-117.04201250,32.48769619,,,
02004722514002321000000000U5,117972,BURRITOS K PACHO,,Restaurantes con servicio de preparación de tacos y tortas,0 a 5 personas,CALLE,VERACRUZ,14051,13,CORONA DEL ROSAL,22438,"TIJUANA, Tijuana, BAJA CALIFORNIA",,,,Fijo,-116.97211223,32.51162367,CENTRO Y PLAZA COMERCIAL,LA ERMITA,13
02002722212004121000000000U2,137978,BURRITOS KAROLO,,Restaurantes con servicio de preparación de tacos y tortas,0 a 5 personas,CALLE,RIO MOCORITO,,,INDEPENDENCIA,21290,"MEXICALI, Mexicali, BAJA CALIFORNIA",,,,Semifijo,-115.43415740,32.62682808,,,
02004722219016342001000000U1,148127,BURRITOS KING,,Restaurantes con servicio de preparación de tacos y tortas,11 a 30 personas,AVENIDA,AVENIDA DE LA INDEPENDENCIA,15300,405,ALTABRISA,22330,"TIJUANA, Tijuana, BAJA CALIFORNIA",,,,Fijo,-116.97118760,32.53052513,,,
02002722514003681000000000U5,89122,BURRITOS LA CARRETA,,Restaurantes con servicio de preparación de tacos y tortas,0 a 5 personas,CALZADA,LUIS ECHEVERRIA Y/O MACRISTY DE HERMOSILLO,899,,VISTA HERMOSA,21240,"MEXICALI, Mexicali, BAJA CALIFORNIA",6861499744,,,Fijo,-115.41763202,32.65084668,,,
02001461130000141010000000U5,141256,BURRITOS LA CARRETONA,,Restaurantes con servicio de preparación de tacos y tortas,0 a 5 personas,CARRETERA,BENITO JUAREZ,,,REFORMA,22920,"VICENTE GUERRERO                                                                                              , San Quintín, BAJA CALIFORNIA",6161211188,,,Fijo,-115.99093790,30.73097305,,,
02001722514002871000000000U5,8093824,BURRITOS LA MORELIANA,,Restaurantes con servicio de preparación de tacos y tortas,0 a 5 personas,BOULEVARD,BOULEVARD DE LOS LAGOS,,,VALLE DORADO,22890,"ENSENADA, Ensenada, BAJA CALIFORNIA",,,,Fijo,-116.59330531,31.82796762,,,
02001722514003641000000000S1,8346042,BURRITOS LA MORELIANA,,Restaurantes con servicio de preparación de tacos y tortas,0 a 5 personas,CARRETERA,TRANSPENINSULAR,,,SAN QUINTIN,22940,"SAN QUINTÍN                                                                                                   , San Quintín, BAJA CALIFORNIA",6161596126,,,Fijo,-115.94184870,30.55981224,,,
02001722514002661000000000U0,6908822,BURRITOS LA PASADITA,,Restaurantes con servicio de preparación de tacos y tortas,0 a 5 personas,BOULEVARD,ZERTUCHE,,,VILLAS DEL REAL 2DA SECC,22785,"ENSENADA, Ensenada, BAJA CALIFORNIA",,,,Fijo,-116.58621643,31.78952183,,,
02002722514008231000000000U4,6915950,BURRITOS LAS TIAS,,Restaurantes con servicio de preparación de tacos y tortas,0 a 5 personas,CALLE,URBANO VASQUEZ (CUARTA),836,0,GONZALEZ ORTEGA,21399,"MEXICALI, Mexicali, BAJA CALIFORNIA",,,,Fijo,-115.39538072,32.61122575,,,
02004722514009211000000000U1,9111217,BURRITOS MILLAN,,Restaurantes con servicio de preparación de tacos y tortas,0 a 5 personas,BOULEVARD,CUAUHTEMOC SUR,3311,,MADERO SUR,22000,"TIJUANA, Tijuana, BAJA CALIFORNIA",,,,Fijo,-117.02235254,32.51228207,,,
02001722514003421000000000U8,8880052,BURRITOS MR FITO,,Restaurantes con servicio de preparación de tacos y tortas,0 a 5 personas,BOULEVARD,EMILIO CARRANZA,1629,,AVIACION,22840,"ENSENADA, Ensenada, BAJA CALIFORNIA",,,,Fijo,-116.59518146,31.86541339,,,
02004722219000551000000000U5,54156,BURRITOS NENAS,,Restaurantes con servicio de preparación de tacos y tortas,0 a 5 personas,CALLE,SEXTA Y/O FLORES MAGON,7334,,ZONA CENTRO,22000,"TIJUANA, Tijuana, BAJA CALIFORNIA",6646851006,,,Fijo,-117.04590795,32.53015283,,,
02004722514008511000000000U5,6959435,BURRITOS ROCKERS,,Restaurantes con servicio de preparación de tacos y tortas,0 a 5 personas,CALLE,BENITO JUAREZ (SEGUNDA),8195,0,ZONA CENTRO,22000,"TIJUANA, Tijuana, BAJA CALIFORNIA",6643764589,,,Fijo,-117.03761183,32.53530197,,,
02001722514004331000000000U8,9364487,BURRITOS SAN TELMO,,Restaurantes con servicio de preparación de tacos y tortas,0 a 5 personas,CALLE,BENITO JUAREZ,,,MEXICO PUNTA COLONET,22909,"EJIDO MÉXICO (PUNTA COLONET), Ensenada, BAJA CALIFORNIA",,,,Fijo,-116.20738734,31.06991256,,,
02003722219000451000000000U0,53950,BURRITOS SHALOM,,Restaurantes con servicio de preparación de tacos y tortas,0 a 5 personas,CALLE,MISION DE MULEGE,1194,,FRACC FOVISSSTE,21478,"TECATE, Tecate, BAJA CALIFORNIA",,,,Fijo,-116.60544667,32.56944621,,,
02004722514005361000000000U8,7016580,BURRITOS SIN NOMBRE,,Restaurantes con servicio de preparación de tacos y tortas,0 a 5 personas,CALLE,MANUEL DOBLADO,3292,,MANUEL DOBLADO,22044,"TIJUANA, Tijuana, BAJA CALIFORNIA",,,,Fijo,-117.01768462,32.51349892,,,
02002722514001132001000000U1,83640,BURRITOS SONORA,,Restaurantes con servicio de preparación de tacos y tortas,0 a 5 personas,CALLE,RIO MOCORITO,798,,INDEPENDENCIA,21290,"MEXICALI, Mexicali, BAJA CALIFORNIA",6861939945,,,Fijo,-115.43458038,32.63503549,,,
02002722219011553001000000U2,64251,BURRITOS TONYS,,Restaurantes con servicio de preparación de tacos y tortas,11 a 30 personas,CALLE,URBANO VASQUEZ (CUARTA),2601,2601,NUEVO MEXICALKI,21399,"MEXICALI, Mexicali, BAJA CALIFORNIA",6865611600,,,Fijo,-115.39340491,32.61364617,,,
02004722514008091000000000U8,7138247,BURRITOS Y ALGO MAS EL DORADO,,Restaurantes con servicio de preparación de tacos y tortas,0 a 5 personas,BOULEVARD,EL DORADO,,,FRACC EL DORADO,22235,"TIJUANA, Tijuana, BAJA CALIFORNIA",,,,Fijo,-116.85768315,32.49307082,,,
02004722212003031000000000U0,141119,BURRITOS Y GORDITAS DON MEÑO,,Restaurantes con servicio de preparación de tacos y tortas,0 a 5 personas,CALLE,CAYUMITO,37,,RAMOS,22460,"TIJUANA, Tijuana, BAJA CALIFORNIA",6648641099,,,Fijo,-116.95135109,32.48704505,,,
02002722514007451000000000U9,8370653,BURRITOS Y GORDITAS PATTY,,Restaurantes con servicio de preparación de tacos y tortas,0 a 5 personas,AVENIDA,ELECTRICISTA,1940,,LIBERTAD,21030,"MEXICALI, Mexicali, BAJA CALIFORNIA",6861829460,,,Fijo,-115.45636674,32.64729674,,,
02004722514002771000000000U1,122674,BURRITOS Y MAS ALMA,,Restaurantes con servicio de preparación de tacos y tortas,0 a 5 personas,PRIVADA,NINGUNO,,,NUEVA AURORA SUR,22604,"TIJUANA, Tijuana, BAJA CALIFORNIA",,,,Semifijo,-117.05148912,32.48258428,,,
02004722514006121000000000U5,7621802,BURRITOS Y TAMALES ROSSY,,Restaurantes con servicio de preparación de tacos y tortas,0 a 5 personas,AVENIDA,DE LA AMISTAD,8950,,EMPLEADOS FEDERALES,22010,"TIJUANA, Tijuana, BAJA CALIFORNIA",6644300525,,,Fijo,-117.02926165,32.53984240,PASAJE Y ANDADOR COMERCIAL,ANDADOR,8950
02004722514002471000000000U8,124752,BURRO EXPRESS,,Restaurantes con servicio de preparación de tacos y tortas,0 a 5 personas,CALLE,FRAY JUNIPERO SERRA,,,MAGAÑA,22450,"TIJUANA, Tijuana, BAJA CALIFORNIA",,,,Fijo,-116.97248998,32.49883458,,,
02002722514006761000000000U2,8850124,BURRO ZONE PERCHERONES,,Restaurantes con servicio de preparación de tacos y tortas,0 a 5 personas,CALLE,VIA DEL SOL,1406,4,CERRADA DEL SOL,21225,"MEXICALI, Mexicali, BAJA CALIFORNIA",6862439275,,,Fijo,-115.38530578,32.65465815,,,
02004722514000231000000000U8,114408,BURROS,,Restaurantes con servicio de preparación de tacos y tortas,0 a 5 personas,CALLE,NINGUNO,,,GUAYCURA,22216,"TIJUANA, Tijuana, BAJA CALIFORNIA",6641201740,,,Fijo,-116.91772931,32.49965435,,,
02004722514001121000000000U0,115613,BURROS BIONICOS EL NETO,,Restaurantes con servicio de preparación de tacos y tortas,0 a 5 personas,ANDADOR,RETORNO SENTRI,150,10,CUAUHTEMOC,22010,"TIJUANA, Tijuana, BAJA CALIFORNIA",,,,Fijo,-117.02788983,32.54141755,MERCADO PUBLICO,MERCADO DE ARTESANIAS LINEA INTERNACIONAL,10
02002722514005681000000000U3,7048341,BURROS DE GUISADO LOLITA,,Restaurantes con servicio de preparación de tacos y tortas,0 a 5 personas,CALZADA,CHETUMAL,0,0,CENTRO,21850,"SAN FELIPE, Mexicali, BAJA CALIFORNIA",6863460226,,,Semifijo,-114.83801262,31.02399775,,,
02004722514008901000000000U8,8558458,BURROS DONKI KO,,Restaurantes con servicio de preparación de tacos y tortas,0 a 5 personas,PRIVADA,AGUA AZUL,10,,LOMA BONITA NORTE,22000,"TIJUANA, Tijuana, BAJA CALIFORNIA",6643611530,,,Fijo,-117.04830201,32.48477038,,,
02004722514007052000000000U1,7346147,BURROS EL CHIKIS,,Restaurantes con servicio de preparación de tacos y tortas,6 a 10 personas,CALLE,MANUEL CONTRERAS,17194,4,JARDINES DE LA MESA,22126,"TIJUANA, Tijuana, BAJA CALIFORNIA",6644927057,,,Fijo,-116.92992515,32.46311725,,,
02002722514006021000000000U1,8320438,BURROS EL CHUKY,,Restaurantes con servicio de preparación de tacos y tortas,0 a 5 personas,AVENIDA,RIO SAN ANGEL,99,4,PUEBLA,21395,"MEXICALI, Mexicali, BAJA CALIFORNIA",68622381885,,,Fijo,-115.36785211,32.57687587,,,
02004722219001531001000000U6,153767,BURROS EL GORDO,,Restaurantes con servicio de preparación de tacos y tortas,6 a 10 personas,CALLE,PANAMERICANA,9809,,RES LA ESMERALDA,22647,"TIJUANA, Tijuana, BAJA CALIFORNIA",6649754249,,,Fijo,-117.01414422,32.46746266,,,
02004722514000711000000000U9,106722,BURROS EL PAREJA,,Restaurantes con servicio de preparación de tacos y tortas,0 a 5 personas,AVENIDA,AVENIDA DE LAS AGUAS,0,0,VILLA FONTANA,22205,"TIJUANA, Tijuana, BAJA CALIFORNIA",6643271056,,,Fijo,-116.86069611,32.50225678,,,
02004722219001101000000000S8,76113,BURROS EL TOCAYO,,Restaurantes con servicio de preparación de tacos y tortas,0 a 5 personas,CALLE,MORELOS,5269,0,LOMAS DE HIPODROMO,22030,"TIJUANA, Tijuana, BAJA CALIFORNIA",6646662744,,,Fijo,-116.98778525,32.49753435,,,
02004722514006201000000000S5,7622969,BURROS EL TOCAYO,,Restaurantes con servicio de preparación de tacos y tortas,0 a 5 personas,AVENIDA,AVENIDA DE LOS GRANDES LAGOS DEL NORTE,19647,,EL LAGO,22214,"TIJUANA, Tijuana, BAJA CALIFORNIA",6646662744,,,Fijo,-116.92627097,32.50895781,,,
02004722514003441000000000U0,124310,BURROS EXPRESS,,Restaurantes con servicio de preparación de tacos y tortas,0 a 5 personas,BOULEVARD,GUSTAVO DIAZ ORDAZ,13601,9,LOPEZ LUCIO,22106,"TIJUANA, Tijuana, BAJA CALIFORNIA",6641041951,BURROSBONG@HOTMAIL.COM,,Fijo,-116.97927669,32.50628742,CENTRO Y PLAZA COMERCIAL,PLAZA XIMENA,9
02004722514003111000000000U9,119590,BURROS JALAPEÑOS,,Restaurantes con servicio de preparación de tacos y tortas,0 a 5 personas,AVENIDA,PASEO ENSENADA,1879,,PLAYAS DE TIJUANA,22506,"TIJUANA, Tijuana, BAJA CALIFORNIA",,BURROSJALAPENOSTJ@GMAIL.COM,,Fijo,-117.11619186,32.51960057,,,
02004722514006381000000000U5,8279990,BURROS JALAPEÑOS,,Restaurantes con servicio de preparación de tacos y tortas,0 a 5 personas,PRIVADA,PASEO COSTERO,769,,MONUMENTAL,22504,"TIJUANA, Tijuana, BAJA CALIFORNIA",6646954217,,,Fijo,-117.12360217,32.52904403,,,
02002722514006931000000000U1,8875512,BURROS JALISCO,,Restaurantes con servicio de preparación de tacos y tortas,0 a 5 personas,CALLE,PROFESOR PEREZ SOSA Y SILVA,,,EJIDO BENITO JUAREZ,21900,"BENITO JUÁREZ (EJIDO TECOLOTES), Mexicali, BAJA CALIFORNIA",,,,Fijo,-114.99817888,32.56695719,,,
02002722514007341000000000U2,8370336,BURROS JASSOS,,Restaurantes con servicio de preparación de tacos y tortas,0 a 5 personas,AVENIDA,PRADO DEL REY,741,,VILLA LAS LOMAS,21355,"MEXICALI, Mexicali, BAJA CALIFORNIA",,,,Fijo,-115.46521442,32.57574977,,,
02001722514002631000000000U3,6908735,BURROS LOS MAYOS,,Restaurantes con servicio de preparación de tacos y tortas,0 a 5 personas,AVENIDA,AMBAR,0,0,VALLE VERDE,22839,"ENSENADA, Ensenada, BAJA CALIFORNIA",,,,Fijo,-116.60575271,31.88362910,,,
02004722514008751000000000U7,8551628,BURROS PERCHERONES LOS PERSH,,Restaurantes con servicio de preparación de tacos y tortas,0 a 5 personas,AVENIDA,AVENIDA DEL PACIFICO,653,,PLAYAS DE TIJUANA SECC COSTA,22205,"TIJUANA, Tijuana, BAJA CALIFORNIA",,,,Fijo,-117.12321596,32.52948258,,,
02004722514008761000000000U6,8551673,BURROS PERCHERONES LOS PERSH,,Restaurantes con servicio de preparación de tacos y tortas,0 a 5 personas,AVENIDA,AVENIDA DEL PACIFICO,653,1,PLAYAS DE TIJUANA SECC COSTA,22205,"TIJUANA, Tijuana, BAJA CALIFORNIA",,,,Fijo,-117.12321587,32.52945770,,,
02004722514009521000000000U3,9190830,BURROS SONORA,,Restaurantes con servicio de preparación de tacos y tortas,0 a 5 personas,CALLE,ALBA ROJA,13174,,HIPODROMO 2,22106,"TIJUANA, Tijuana, BAJA CALIFORNIA",6688366031,,,Fijo,-116.98226418,32.49755299,,,
02004722514009181000000000U6,8677431,BURROS Y MENUDOS MARYS,,Restaurantes con servicio de preparación de tacos y tortas,0 a 5 personas,CALLE,CALLE EL ROSARITO,0,0,LA JOYA,22710,"TIJUANA, Tijuana, BAJA CALIFORNIA",6641964329,,,Semifijo,-117.01410227,32.44256729,,,
02002722514005101000000000U2,6930477,BURROS Y TACOS ANGEL,,Restaurantes con servicio de preparación de tacos y tortas,0 a 5 personas,AVENIDA,REFORMA,325,,FRACC RIO NUEVO,21100,"MEXICALI, Mexicali, BAJA CALIFORNIA",6861859329,,,Fijo,-115.49273266,32.66288992,,,
02004722514009881000000000U1,9355572,BURROTES SONORA,,Restaurantes con servicio de preparación de tacos y tortas,0 a 5 personas,BOULEVARD,BOULEVARD EL REFUGIO,25420,,CAÑADAS DEL FLORIDO,22245,"TIJUANA, Tijuana, BAJA CALIFORNIA",,,,Fijo,-116.86436760,32.46614751,CENTRO Y PLAZA COMERCIAL,PLAZA LAS FUENTES,G
02004722514005781000000000U7,8955796,C22,COCINA CREATIVA VEGETARIANA ,Restaurantes con servicio de preparación de tacos y tortas,0 a 5 personas,OTRO (ESPECIFIQUE),NINGUNO,20,,HIPODROMO,22020,"TIJUANA, Tijuana, BAJA CALIFORNIA",,,,Fijo,-116.99966894,32.50700358,,,
02001722514003831000000000U8,7005015,CABEZA DE RES ESTILO SINALOA,,Restaurantes con servicio de preparación de tacos y tortas,0 a 5 personas,CARRETERA,BENITO JUAREZ,,,VICENTE GUERRERO,22920,"VICENTE GUERRERO                                                                                              , San Quintín, BAJA CALIFORNIA",6161110812,,,Fijo,-115.98927319,30.72164096,,,
02002722219009251000000000U7,64202,CABEZA DE RES LA PRIMERA,,Restaurantes con servicio de preparación de tacos y tortas,0 a 5 personas,CALLE,PRIMERA,,,GONZALEZ ORTEGA PTE 3,21399,"MEXICALI, Mexicali, BAJA CALIFORNIA",,,,Fijo,-115.39954400,32.60897694,,,
02001722514002311010000000U2,93957,CALIFORNIA TACOS Y BAR,,Restaurantes con servicio de preparación de pescados y mariscos,0 a 5 personas,AVENIDA,ADOLFO LOPEZ MATEOS,,,ZONA CENTRO,22800,"ENSENADA, Ensenada, BAJA CALIFORNIA",,,,Fijo,-116.62515625,31.86207218,,,
02002722330000201000000000U6,6915197,CARBONERITO TACOS TORTAS,,Restaurantes con servicio de preparación de tacos y tortas,0 a 5 personas,PRIVADA,CUAUHTEMOC,1289,0,AVENIDA REPUBLICA DE URUGUAY,21240,"MEXICALI, Mexicali, BAJA CALIFORNIA",6863505631,,,Fijo,-115.42506696,32.65921235,,,
02004461121000771001000000U2,55971,CARNICERIA SAN MANUELITO,,Restaurantes con servicio de preparación de tacos y tortas,0 a 5 personas,AVENIDA,NIÑOS HEROES (B),1024,,ZONA CENTRO,22000,"TIJUANA, Tijuana, BAJA CALIFORNIA",,,,Fijo,-117.03971910,32.53233855,,,
02004722514006151000000000U2,7622546,CARNITAS ABASTOS,,Restaurantes con servicio de preparación de tacos y tortas,0 a 5 personas,OTRO (ESPECIFIQUE),NINGUNO,6400,0,YAMILLE,22114,"TIJUANA, Tijuana, BAJA CALIFORNIA",,,,Fijo,-116.94776365,32.49299447,CENTRAL DE ABASTO,CENTRAL DE ABASTOS,L-5B
02002722514001141000000000U2,92278,CARNITAS CHAPITO,,Restaurantes con servicio de preparación de tacos y tortas,0 a 5 personas,CALZADA,LAGUNA XOCHIMILCO,0,0,VILLA DEL REY CUARTA ETAPA,21354,"MEXICALI, Mexicali, BAJA CALIFORNIA",,,,Fijo,-115.48189396,32.60446517,,,
02001722514003471000000000U3,8301289,CARNITAS CUARTO DE KILO,,Restaurantes con servicio de preparación de tacos y tortas,0 a 5 personas,CALLE,NUEVE,,,BUSTAMANTE,22840,"ENSENADA, Ensenada, BAJA CALIFORNIA",,,,Fijo,-116.60210638,31.86655642,"TIANGUIS, BAZAR O PULGA",LOS GLOBOS,SN
02001722514000151000000000U4,98501,CARNITAS DON MANUEL,,Restaurantes con servicio de preparación de tacos y tortas,0 a 5 personas,CARRETERA,TRANSPENINSULAR,308,0,VICENTE GUERRERO,22920,"VICENTE GUERRERO                                                                                              , San Quintín, BAJA CALIFORNIA",6161080851,,,Semifijo,-115.99048701,30.72727121,,,
02004722514005591000000000U0,8313306,CARNITAS DON SALO,,Restaurantes con servicio de preparación de tacos y tortas,0 a 5 personas,CALLE,AGRARIA,8038,,PIPILA,22206,"TIJUANA, Tijuana, BAJA CALIFORNIA",66420006900,,,Fijo,-116.87296981,32.49264900,,,
02002722514004971000000000U9,6930249,CARNITAS EL ALAN,CARNITAS EL ALAN ,Restaurantes con servicio de preparación de tacos y tortas,0 a 5 personas,CALLE,F,1190,0,INDUSTRIAL,21010,"MEXICALI, Mexicali, BAJA CALIFORNIA",6862328398,,,Fijo,-115.46770771,32.65260950,,,
02002722514005531000000000U0,6941394,CARNITAS EL DANY,,Restaurantes con servicio de preparación de tacos y tortas,0 a 5 personas,CALLE,DE LA PROCURADURIA,,,HIDALGO,21389,"MEXICALI, Mexicali, BAJA CALIFORNIA",,,,Fijo,-115.45294916,32.62361572,,,
02004722514008681000000000U6,6949788,CARNITAS EL GUERO,,Restaurantes con servicio de preparación de tacos y tortas,0 a 5 personas,BOULEVARD,FLORES MAGON,5108,,SALVATIERRA,22607,"TIJUANA, Tijuana, BAJA CALIFORNIA",,,,Fijo,-117.07449397,32.48191197,,,
02001722514001471000000000U5,72710,CARNITAS EL GUERO,CARNITAS EL GUERO ,Restaurantes con servicio de preparación de tacos y tortas,0 a 5 personas,CALLE,PRIMERA,0,0,HIDALGO,22880,"ENSENADA, Ensenada, BAJA CALIFORNIA",,,,Fijo,-116.59003801,31.85327863,,,
02004722514008501000000000U6,6959416,CARNITAS EL JAVI,,Restaurantes con servicio de preparación de tacos y tortas,0 a 5 personas,CALLE,E. CHOPO,3388,,CIUDAD JARDIN,22610,"TIJUANA, Tijuana, BAJA CALIFORNIA",,,,Fijo,-117.06263015,32.50918735,,,
02002722514003361000000000M4,88639,CARNITAS EL MAYO,,Restaurantes con servicio de preparación de tacos y tortas,0 a 5 personas,AVENIDA,VENUSTIANO CARRANZA,115,,VALLARTA,21270,"MEXICALI, Mexicali, BAJA CALIFORNIA",,,,Fijo,-115.43890907,32.64414604,,,
02002722513004191000000000S6,8370191,CARNITAS EL TACO,,Restaurantes con servicio de preparación de antojitos,0 a 5 personas,CALZADA,INDEPENDENCIA,1500,0,ESPERANZA,21140,"MEXICALI, Mexicali, BAJA CALIFORNIA",6861914763,,,Fijo,-115.50069121,32.64427158,,,
02001722514001351000000000U9,71061,CARNITAS EL TEQUILEÑO,,Restaurantes con servicio de preparación de tacos y tortas,0 a 5 personas,CALZADA,CALZADA DE LAS AGUILAS,1054,4,INDEPENDENCIA,22040,"ENSENADA, Ensenada, BAJA CALIFORNIA",,,,Fijo,-116.59903909,31.86382563,,,
02001722219002981000000000U8,73927,CARNITAS ESTILO GUANAJUATO,,Restaurantes con servicio de preparación de tacos y tortas,0 a 5 personas,CALLE,SEXTA (PERIFERICO),0,0,MAESTROS,22840,"ENSENADA, Ensenada, BAJA CALIFORNIA",,MARICARMEN125@HOTMAIL.COM,,Fijo,-116.58242890,31.86481117,,,
02004722514001741000000000U5,116222,CARNITAS ESTILO MICHOACAN,,Restaurantes con servicio de preparación de tacos y tortas,0 a 5 personas,AVENIDA,PADRE FRANCISCO EUSEBIO KINO,,,LIBERTAD PARTE BAJA,22300,"TIJUANA, Tijuana, BAJA CALIFORNIA",,,,Fijo,-117.02559185,32.53956609,,,
02001722514002491000000000U2,7622882,CARNITAS ESTILOS MICHOACAN,,Restaurantes con servicio de preparación de tacos y tortas,0 a 5 personas,CALLE,NINGUNO,,,RODOLFO SANCHEZ TABOADA MANEADERO,22790,"RODOLFO SÁNCHEZ TABOADA (MANEADERO), Ensenada, BAJA CALIFORNIA",,,,Fijo,-116.57794209,31.72687144,"TIANGUIS, BAZAR O PULGA",MERCADO COMUN DE MANEADERO,SN
02001722219006583000000000U8,70337,CARNITAS HERMANOS RAMIREZ,,Restaurantes con servicio de preparación de tacos y tortas,6 a 10 personas,CALLE,JUAN RODRIGUEZ CABRILLO,200,,ZONA CENTRO,22800,"ENSENADA, Ensenada, BAJA CALIFORNIA",,,,Fijo,-116.62343249,31.86325893,,,
02001722514001661000000000U1,135081,CARNITAS IMELDA LA M ICHOACANA,,Restaurantes con servicio de preparación de tacos y tortas,0 a 5 personas,CALLE,11,998,,JESUS MUNGUIA,22840,"ENSENADA, Ensenada, BAJA CALIFORNIA",,,,Fijo,-116.58664394,31.87234658,,,
02004722514003411000000000U3,55403,CARNITAS KIKI,,Restaurantes con servicio de preparación de tacos y tortas,0 a 5 personas,CALLE,SEXTA Y/O FLORES MAGON,909,6,ZONA CENTRO,22000,"TIJUANA, Tijuana, BAJA CALIFORNIA",6646851486,,,Fijo,-117.03379835,32.53127278,,,
02004722514002501000000000U2,122299,CARNITAS LA GUADALUPANA,,Restaurantes con servicio de preparación de tacos y tortas,0 a 5 personas,CALLE,CHOPO,,,FRANCISCO VILLA,22610,"TIJUANA, Tijuana, BAJA CALIFORNIA",,,,Fijo,-117.05821318,32.51078751,,,
02004722219016422000000000U1,134339,CARNITAS LA TZARARACUA,,Restaurantes con servicio de preparación de tacos y tortas,0 a 5 personas,BOULEVARD,RUTA MATAMOROS,23601,16,MARIANO MATAMOROS NORTE,22206,"TIJUANA, Tijuana, BAJA CALIFORNIA",6649785171,CARNITAS_LA_TZARARACUA@HOTMAIL.COM,,Fijo,-116.88743354,32.49713789,,,
02001722514000571000000000S3,94088,CARNITAS LOS TIGRILLOS,,Restaurantes con servicio de preparación de tacos y tortas,0 a 5 personas,AVENIDA,ALVARADO,569,,CENTRO,22800,"ENSENADA, Ensenada, BAJA CALIFORNIA",6461034553,,,Fijo,-116.62085138,31.86631068,,,
02002722514008141000000000U5,6915773,CARNITAS QUINOS,,Restaurantes con servicio de preparación de tacos y tortas,0 a 5 personas,BOULEVARD,VENUSTIANO CARRANZA,,1999,VALLE DORADO,21399,"MEXICALI, Mexicali, BAJA CALIFORNIA",,,,Fijo,-115.40547093,32.61312066,,,
02001722514003121000000000U4,7078693,CARNITAS ROJO,,Restaurantes con servicio de preparación de tacos y tortas,0 a 5 personas,CALLE,CUCAPAH,156,0,MISIONES DE LA PRESA 1,22813,"ENSENADA, Ensenada, BAJA CALIFORNIA",,,,Fijo,-116.57689087,31.89712112,,,
02002722212002501000000000U7,73183,CARNITAS TADEO,,Restaurantes con servicio de preparación de tacos y tortas,0 a 5 personas,AVENIDA,REPUBLICA DE URUGUAY,879,,SONORA,21210,"MEXICALI, Mexicali, BAJA CALIFORNIA",6865652153,,,Fijo,-115.43332291,32.65952036,,,
02001722514003261000000000U8,7156048,CARNITAS TANY,,Restaurantes con servicio de preparación de tacos y tortas,0 a 5 personas,CALLE,PRINCIPAL,,,FRANCISCO ZARCO (GUADALUPE),22750,"FRANCISCO ZARCO (VALLE DE GUADALUPE), Ensenada, BAJA CALIFORNIA",6462607109,,,Fijo,-116.56425978,32.10061662,,,
02001722219005732000000000U2,72947,CARNITAS TIGRILLOS,,Restaurantes con servicio de preparación de tacos y tortas,0 a 5 personas,AVENIDA,BRONCE,1418,8,RELOTIFICACION ROBERTO SALAZAR,22830,"ENSENADA, Ensenada, BAJA CALIFORNIA",,,,Fijo,-116.61228970,31.87343612,,,
02004722514000741000000000U6,112668,CARNITAS TIJUANA,,Restaurantes con servicio de preparación de tacos y tortas,0 a 5 personas,AVENIDA,IGNACIO ZARAGOZA Y/O MURUA,34,0,MURUA,22465,"TIJUANA, Tijuana, BAJA CALIFORNIA",6643556520,,,Semifijo,-116.94816212,32.51429647,,,
02001722514001421000000000U0,56597,CARNITAS URUAPAN,,Restaurantes con servicio de preparación de tacos y tortas,0 a 5 personas,PROLONGACION,LAZARO CARDENAS,,,FRACC PORTICOS DEL MAR,22785,"ENSENADA, Ensenada, BAJA CALIFORNIA",6462277253,,,Fijo,-116.57928132,31.78417572,,,
02004722514007691000000000U6,8333386,CARNITAS Y MAS ESTILO MICHOACAN,,Restaurantes con servicio de preparación de tacos y tortas,0 a 5 personas,CALLE,TIJUANA,15401,,EL TECOLOTE SECC II,22675,"TIJUANA, Tijuana, BAJA CALIFORNIA",6646782893,,,Fijo,-116.98780179,32.44725108,,,
02004722514005581000000000U1,8313183,CARRETA 22,,Restaurantes con servicio de preparación de tacos y tortas,0 a 5 personas,BOULEVARD,MANUEL J. CLOUTHIER,18561,,LAGO SUR,22490,"TIJUANA, Tijuana, BAJA CALIFORNIA",,,,Fijo,-116.91868038,32.49968001,CENTRO Y PLAZA COMERCIAL,PLAZA MONARCA,C 89
02002722514007001000000000U2,8346479,CARRETA DE TACOS SIN NOMRE,,Restaurantes con servicio de preparación de tacos y tortas,0 a 5 personas,AVENIDA,ASTEROIDES,,,SAN CLEMENTE,21139,"MEXICALI, Mexicali, BAJA CALIFORNIA",,,,Semifijo,-115.57367390,32.62931414,,,
02004461123001521000000000U6,9366126,CARRETA TACO SHOP,CARRETA TACO SHOP ,Comercio al por menor de pescados y mariscos,0 a 5 personas,CALLE,E,3735,,CASTRO GREEN,22186,"TIJUANA, Tijuana, BAJA CALIFORNIA",,,,Fijo,-116.94327547,32.48218024,,,
02002722219010002001000000U1,75566,CASTILLO TACO STAND,,Restaurantes con servicio de preparación de tacos y tortas,0 a 5 personas,BOULEVARD,ANAHUAC,1900,,QUINTA DEL REY,21355,"MEXICALI, Mexicali, BAJA CALIFORNIA",6861823475,,,Fijo,-115.47409462,32.58790776,,,
02004722219006681000000000U4,55534,CEMITAS LA CHINA POBLANA,,Restaurantes con servicio de preparación de tacos y tortas,0 a 5 personas,AVENIDA,MIGUEL NEGRETE,924,,ZONA CENTRO,22000,"TIJUANA, Tijuana, BAJA CALIFORNIA",6646857589,CEMITAS@HOTMAIL.COM,,Fijo,-117.03324289,32.53163042,,,
02001722212002361000000000U8,71075,CENADURIA NAYARIT,,Restaurantes con servicio de preparación de tacos y tortas,0 a 5 personas,AVENIDA,GUADALUPE VICTORIA,219,,INDEPENDENCIA,22840,"ENSENADA, Ensenada, BAJA CALIFORNIA",,MIRNALZ1605@GMAIL.COM,,Fijo,-116.59760209,31.86188163,,,
02002722514001861000000000U5,79918,CENADURIA Y REFRESQUERIA DERA,,Restaurantes con servicio de preparación de tacos y tortas,0 a 5 personas,AVENIDA,PASEO DE CORTES,62,1,RESIDENCIAL EL DORADO,21386,"MEXICALI, Mexicali, BAJA CALIFORNIA",,,,Fijo,-115.42359439,32.56689762,,,
02002722512001501000000000U1,8727857,CESARS FISH TACO,,Restaurantes con servicio de preparación de pescados y mariscos,0 a 5 personas,CALLE,HACIENDA CARPIZO,,,GRAN HACIENDA,21353,"MEXICALI, Mexicali, BAJA CALIFORNIA",,,,Fijo,-115.47069992,32.59573359,,,
02002722512001861000000000U9,6915115,CHECK POINT FISH 1 TACOS,,Restaurantes con servicio de preparación de pescados y mariscos,0 a 5 personas,AVENIDA,FRAY SERVANDO TERESA DE MIER,460,,INDEPENDENCIA,21290,"MEXICALI, Mexicali, BAJA CALIFORNIA",,JESUSCHECKPOINTFISHTACO@HOTMAIL.COM,,Fijo,-115.43947642,32.63702633,,,
02004722514009621000000000U1,9224668,CHEFCITO,,Restaurantes con servicio de preparación de tacos y tortas,0 a 5 personas,CALLE,RIO COLORADO,9808,,REVOLUCION,22015,"TIJUANA, Tijuana, BAJA CALIFORNIA",,,,Fijo,-117.01946107,32.52119253,,,
02001722514004281000000000U5,9252886,CHILAQUILES Y TORTAS LA TORTUGA,,Restaurantes con servicio de preparación de tacos y tortas,0 a 5 personas,AVENIDA,BLANCARTE,,,ZONA CENTRO,22800,"ENSENADA, Ensenada, BAJA CALIFORNIA",,,,Fijo,-116.62002782,31.86448970,,,
02004722517002711000000000S0,123024,CHINO TACOS N FRIES SUCURSAL CACHO,,"Restaurantes con servicio de preparación de pizzas, hamburguesas, hot dogs y pollos rostizados para llevar",0 a 5 personas,AVENIDA,BATOPILAS,2342,,MADERO,22040,"TIJUANA, Tijuana, BAJA CALIFORNIA",6643785529,,,Fijo,-117.02974560,32.52060700,,,
02004722511006231000000000U8,8515727,CHINO TACOS NFRIES,,Restaurantes con servicio de preparación de alimentos a la carta o de comida corrida,0 a 5 personas,AVENIDA,LAS PALMAS,5025,2,LAS PALMAS,22440,"TIJUANA, Tijuana, BAJA CALIFORNIA",,,,Fijo,-116.98623715,32.50113714,,,
02004722513006181000000000U1,8112778,CHOLO TACOS,,Restaurantes con servicio de preparación de tacos y tortas,0 a 5 personas,BOULEVARD,BOULEVARD DE LOS INSURGENTES,,15502,LOS ALAMOS,22114,"TIJUANA, Tijuana, BAJA CALIFORNIA",6643126945,,,Fijo,-116.94217398,32.50242687,OTRO CONGLOMERADO,BIG MOON AUTO CINEMA,15502
02004722514008391000000000U2,7369229,CHUCHERIAS LESLIE,,Restaurantes con servicio de preparación de tacos y tortas,0 a 5 personas,AVENIDA,LAS TORRES,,,EL PIPILA,22206,"TIJUANA, Tijuana, BAJA CALIFORNIA",,,,Fijo,-116.87815772,32.50619830,,,
02002722514008582000000000U0,6973196,CILANTRO BURRITOS FACTORY,,Restaurantes con servicio de preparación de tacos y tortas,6 a 10 personas,BOULEVARD,ANILLO PERIFERICO,1600,0,PLAZA SENDERO,21395,"MEXICALI, Mexicali, BAJA CALIFORNIA",,,,Fijo,-115.35629524,32.59417090,CENTRO Y PLAZA COMERCIAL,PLAZA SENDERO,E
02004722514008351000000000U6,7369019,CLUB NUTICIONAL HIERBALIFE,,Restaurantes con servicio de preparación de tacos y tortas,0 a 5 personas,CALLE,PASEO DEL LOBO AMERICANO,20031,,LOS LOBOS,22207,"TIJUANA, Tijuana, BAJA CALIFORNIA",,,,Fijo,-116.90074258,32.50286722,,,
02003722514000151000000000U0,6500372,COMER BUS,,Restaurantes con servicio de preparación de tacos y tortas,0 a 5 personas,AVENIDA,BENITO JUAREZ,,,TECATE CENTRO,21400,"TECATE, Tecate, BAJA CALIFORNIA",6656542343,,,Fijo,-116.62469612,32.57370472,,,
02002722212006171000000000U5,74678,COOPERATIVA,,Restaurantes con servicio de preparación de tacos y tortas,0 a 5 personas,AVENIDA,ISLA CORCEGA,,,JARDINES DEL LAGO,21380,"MEXICALI, Mexicali, BAJA CALIFORNIA",6865564552,,,Fijo,-115.48696011,32.61557363,,,
02001722514002911000000000U9,8434568,CRIOLLO TAQUERIA,,Restaurantes con servicio de preparación de tacos y tortas,0 a 5 personas,CALLE,JUAN RODRIGUEZ CABRILLO,1380,0,OBRERA,22830,"ENSENADA, Ensenada, BAJA CALIFORNIA",,,,Fijo,-116.61693408,31.86057136,,,
02002722514006411000000000U4,8728288,CUCHY TROSKY,,Restaurantes con servicio de preparación de tacos y tortas,0 a 5 personas,AVENIDA,JOSE MARIA LARROQUE,651,,SEGUNDA SECCION,21010,"MEXICALI, Mexicali, BAJA CALIFORNIA",6863487841,,,Fijo,-115.47031945,32.65800530,,,
02002722514007881000000000U7,6915227,CULICHISTEAK TACO,,Restaurantes con servicio de preparación de tacos y tortas,0 a 5 personas,CALLE,MACRISTY DE HERMOSILLO,0,0,INDEPENDENCIA,21290,"MEXICALI, Mexicali, BAJA CALIFORNIA",6861701733,,,Fijo,-115.41871003,32.63768407,,,
02001463211006241010000000U3,150927,CURIOSIDADES,,Restaurantes con servicio de preparación de tacos y tortas,0 a 5 personas,CALLE,NINGUNO,,,LA BUFADORA,22794,"LA BUFADORA, Ensenada, BAJA CALIFORNIA",,,,Fijo,-116.71386943,31.72305384,,,
02002722512001451000000000U9,8320799,DANI FISH TACO,,Restaurantes con servicio de preparación de pescados y mariscos,0 a 5 personas,CALLE,CALLE DEL HOSPITAL,565,0,JOSUE MOLINA,21090,"MEXICALI, Mexicali, BAJA CALIFORNIA",6862325418,,,Fijo,-115.47769561,32.64074244,,,
02002722514005851000000000U2,8319626,DEL DIA TORTAS,,Restaurantes con servicio de preparación de tacos y tortas,0 a 5 personas,CALZADA,CUAUHTEMOC (AVIACION),974,1,PROHOGAR,21240,"MEXICALI, Mexicali, BAJA CALIFORNIA",,,,Fijo,-115.43214123,32.65838276,CENTRO Y PLAZA COMERCIAL,PLAZA AVIACION,1
02002722512001601000000000U9,8112584,DEL MAR FISH TACO,,Restaurantes con servicio de preparación de pescados y mariscos,0 a 5 personas,CALLE,BRAVO,,,PRIMERA SECCION,21100,"MEXICALI, Mexicali, BAJA CALIFORNIA",6863476662,,,Fijo,-115.48446682,32.66202802,,,
02002722514005881000000000U9,8319742,DEL PANZON,,Restaurantes con servicio de preparación de tacos y tortas,0 a 5 personas,AVENIDA,GORDIANO GUZMAN,902,,INDEPENDENCIA,21290,"MEXICALI, Mexicali, BAJA CALIFORNIA",,,,Fijo,-115.43190286,32.62723252,,,
02002722514009201000000000U6,9252806,DELICIAS SONORENSES,,Restaurantes con servicio de preparación de tacos y tortas,0 a 5 personas,PROLONGACION,RIO PRESIDIO,1301,,INDEPENDENCIA,21290,"MEXICALI, Mexicali, BAJA CALIFORNIA",,,,Fijo,-115.42317981,32.63190283,,,
02004722514008411000000000U8,6958789,DON BIRIION TACOS VARIOS LOS CHAPULINES,,Restaurantes con servicio de preparación de tacos y tortas,0 a 5 personas,BOULEVARD,BOULEVARD DE LOS FUNDADORES,2254,0,JUAREZ,22040,"TIJUANA, Tijuana, BAJA CALIFORNIA",6644736076,,,Fijo,-117.03246496,32.52222661,,,
02002812110019721010000000U9,81760,DON DELICIAS,,Restaurantes con servicio de preparación de tacos y tortas,0 a 5 personas,AVENIDA,PONTEVEDRA,1056,,INFONAVIT CUCAPAH,21340,"MEXICALI, Mexicali, BAJA CALIFORNIA",6861244744,,,Fijo,-115.47348328,32.61847536,,,
02004722514005821000000000U1,6971088,DON GALLO TORTAS,,Restaurantes con servicio de preparación de tacos y tortas,0 a 5 personas,CALLE,PASEO DE LOS HEROES,,,ANEXA 20 DE NOVIEMBRE,22100,"TIJUANA, Tijuana, BAJA CALIFORNIA",,,,Fijo,-116.98424904,32.51334227,,,
02004722514002112001000000U8,130199,DON TACO,,Restaurantes con servicio de preparación de tacos y tortas,0 a 5 personas,CALLE,PASEO SANTA FE,10201,18,PORTICOS DE SAN ANTONIO,22709,"TIJUANA, Tijuana, BAJA CALIFORNIA",6649740103,,,Fijo,-117.03555396,32.44290311,CENTRO Y PLAZA COMERCIAL,PLAZA CALIMAX,18
02002722514005961000000000U9,8320051,DON TACO,,Restaurantes con servicio de preparación de tacos y tortas,0 a 5 personas,PROLONGACION,HEROICO COLEGIO MILITAR,,,VICENTE GUERRERO,21320,"MEXICALI, Mexicali, BAJA CALIFORNIA",,,,Fijo,-115.50595750,32.60813764,,,
02004722514005561000000000U3,8313090,DON TACO JUAN 3 :16,,Restaurantes con servicio de preparación de tacos y tortas,0 a 5 personas,CARRETERA,LIBRE A TECATE,,,MACLOVIO ROJAS,22254,"TIJUANA, Tijuana, BAJA CALIFORNIA",664462464,,,Fijo,-116.80496129,32.46717308,,,
02004722514008861000000000U4,8552807,DOÑA TORTA,,Restaurantes con servicio de preparación de tacos y tortas,0 a 5 personas,CALLE,ZAPATA,11,,LAZARO CARDENAS,22510,"TIJUANA, Tijuana, BAJA CALIFORNIA",,,,Fijo,-117.09608556,32.51230014,,,
02004722514007411000000000U9,8850281,DONKY REY BURRERIA,,Restaurantes con servicio de preparación de tacos y tortas,0 a 5 personas,CALLE,MIGUEL HIDALGO Y COSTILLA,,,LA GLORIA,22645,"TIJUANA, Tijuana, BAJA CALIFORNIA",,,,Fijo,-117.01244596,32.44477400,,,
02004722514006531000000000U5,8093846,DORADITOS BUSIO,,Restaurantes con servicio de preparación de tacos y tortas,0 a 5 personas,CALLE,MINA,7922,,INDEPENDENCIA,22130,"TIJUANA, Tijuana, BAJA CALIFORNIA",6648211755,DORADITOSBUSIO@HOTMAIL.COM,,Fijo,-117.04024447,32.52418791,,,
02002722514002471000000000U2,89292,DULCE AMANECER,,Restaurantes con servicio de preparación de tacos y tortas,0 a 5 personas,AVENIDA,REPUBLICA DE BRASIL,418,,AVENIDA COLOMBIA,21216,"MEXICALI, Mexicali, BAJA CALIFORNIA",6861223087,,,Fijo,-115.41731722,32.66824268,,,
02003722514000541000000000U2,7048252,EL APA TACOS Y BURRITOS,,Restaurantes con servicio de preparación de tacos y tortas,0 a 5 personas,AVENIDA,QUINTA,,,JUAREZ,21480,"TECATE, Tecate, BAJA CALIFORNIA",,,,Semifijo,-116.63189551,32.55700290,,,
02004722514008261000000000U7,7368560,EL BORRO PERCHERON,,Restaurantes con servicio de preparación de tacos y tortas,0 a 5 personas,AVENIDA,MELCHOR OCAMPO,23563,0,EJIDO MATAMOROS,22204,"TIJUANA, Tijuana, BAJA CALIFORNIA",,,,Fijo,-116.85547026,32.51407138,,,
02002722310000171000000000U3,7048335,EL BOTY,,Restaurantes con servicio de preparación de tacos y tortas,0 a 5 personas,CALZADA,CHETUMAL,0,0,CENTRO,21850,"SAN FELIPE, Mexicali, BAJA CALIFORNIA",6462579123,KMP-123@HOTMAIL.COM,,Fijo,-114.83448570,31.02291166,,,
02004722514009821000000000U7,9361561,EL BUEN SAZON,,Restaurantes con servicio de preparación de tacos y tortas,0 a 5 personas,AVENIDA,1,9940,,CÑADAS DEL FLORIDO,22245,"TIJUANA, Tijuana, BAJA CALIFORNIA",,,,Fijo,-116.86263502,32.46169997,,,
02004722514008111000000000U4,7138292,EL BURRITO LOCO,,Restaurantes con servicio de preparación de tacos y tortas,0 a 5 personas,BOULEVARD,CASA BLANCA,26135,11,FRANCISCO VILLA,22236,"TIJUANA, Tijuana, BAJA CALIFORNIA",6643515133,,,Fijo,-116.85131155,32.49445758,CENTRO Y PLAZA COMERCIAL,PLAZA PASEO 2000,PB
02004722514007671000000000U8,8796810,EL BURRITO TIJUANENSE,EL BURRITO TIJUANENSE ,Restaurantes con servicio de preparación de tacos y tortas,0 a 5 personas,CALLE,ANTONIO NAVA,23034,,MARIANO MATAMOROS NORTE,22206,"TIJUANA, Tijuana, BAJA CALIFORNIA",,,,Fijo,-116.88300652,32.48906030,,,
02004722514002791000000000U9,128615,EL BURRO MAYOR,,Restaurantes con servicio de preparación de tacos y tortas,0 a 5 personas,CALLE,PLAZA DE SAN MARCOS,6597,,LEANDRO VALLE,22643,"TIJUANA, Tijuana, BAJA CALIFORNIA",6228050,,,Fijo,-116.99468893,32.48067180,,,
02004722513004751011000000U3,6423901,EL BURRO PERCHERON,EL BURRO PERCHERON ,Restaurantes con servicio de preparación de tacos y tortas,6 a 10 personas,BOULEVARD,CUAUHTEMOC NORTE,1713,,LIBERTAD PARTE BAJA,22300,"TIJUANA, Tijuana, BAJA CALIFORNIA",,ELBURROPERCHERONLIBERTAD@GMAIL.COM,,Fijo,-117.00895148,32.53322940,,,
02004722219008951000000000U9,133524,EL BURRO PERCHERON,,Restaurantes con servicio de preparación de tacos y tortas,0 a 5 personas,AVENIDA,LICENCIADO MARTIN CAREAGA,4820,0,SOLER,22536,"TIJUANA, Tijuana, BAJA CALIFORNIA",6646092993,,,Semifijo,-117.07370905,32.52957156,,,
02004722219012121000000000U3,124491,EL BURRO PERCHERON,,Restaurantes con servicio de preparación de tacos y tortas,0 a 5 personas,AVENIDA,LAS PALMAS,5106,,LAS PALMAS,22106,"TIJUANA, Tijuana, BAJA CALIFORNIA",6646084187,,,Fijo,-116.98629292,32.50002415,,,
02004722514005502000000000U7,7017332,EL BURRO PERCHERON,,Restaurantes con servicio de preparación de tacos y tortas,6 a 10 personas,BOULEVARD,CUAUHTÉMOC SUR PONIENTE,2801,9,CUAUHTEMOC,22044,"TIJUANA, Tijuana, BAJA CALIFORNIA",,ELBURROPERCHERONDAVILA@GMAIL.COM,,Fijo,-117.02133396,32.51728622,CENTRO Y PLAZA COMERCIAL,PLAZA TROPICAL,9
02004722514007661000000000U9,8766667,EL BURRO PERCHERON,,Restaurantes con servicio de preparación de tacos y tortas,0 a 5 personas,CALLE,CASA BLANCA,,,BUENOS AIRES,22207,"TIJUANA, Tijuana, BAJA CALIFORNIA",,,,Fijo,-116.89269587,32.50159903,,,
02002722212000801000000000U3,137416,EL CHALET DE DON VICTOR,,Restaurantes con servicio de preparación de tacos y tortas,0 a 5 personas,CALLE,CHURUBUSCO,17,0,RESIDENCIAS,21280,"MEXICALI, Mexicali, BAJA CALIFORNIA",,,,Fijo,-115.44296102,32.63041918,,,
02001722514000821001000000M2,98940,EL CHE,,Restaurantes con servicio de preparación de tacos y tortas,6 a 10 personas,CARRETERA,TRANSPENINSULAR,0,0,RODOLFO SANCHEZ TABOADA (MANEADERO),22790,"RODOLFO SÁNCHEZ TABOADA (MANEADERO), Ensenada, BAJA CALIFORNIA",,,,Fijo,-116.57337117,31.72189409,,,
02001722514000701000000000U6,101496,EL CHEFEESITO TACOS,,Restaurantes con servicio de preparación de tacos y tortas,0 a 5 personas,BOULEVARD,GENERAL JUAN ZERTUCHE,896,0,VALLE DORADO,22890,"ENSENADA, Ensenada, BAJA CALIFORNIA",6461277119,CHEFEESITOEVENTOMARRON@HOTMAIL.COM,,Fijo,-116.59815767,31.83008916,,,
02002722212002401000000000U0,64415,EL COMAL Y MASA,,Restaurantes con servicio de preparación de tacos y tortas,6 a 10 personas,AVENIDA,DIAGONAL ALFAREROS,822,0,ZONA INDUSTRIAL,21010,"MEXICALI, Mexicali, BAJA CALIFORNIA",,,,Fijo,-115.46973953,32.65004167,,,
02002722512001821000000000U3,6914757,EL DELFIN TACOS,,Restaurantes con servicio de preparación de pescados y mariscos,0 a 5 personas,AVENIDA,FERNANDO MONTES DE OCA,,,ROMA,21250,"MEXICALI, Mexicali, BAJA CALIFORNIA",6865783635,,,Fijo,-115.42774168,32.64862543,,,
02001722514000311000000000U4,93306,EL FAROLITO DE DON LALO,,Restaurantes con servicio de preparación de tacos y tortas,0 a 5 personas,CALLE,COLINAS RIVERSIDE,,,COLINAS DEL MAR,22760,"EL SAUZAL DE RODRÍGUEZ, Ensenada, BAJA CALIFORNIA",6461271394,,,Fijo,-116.68852864,31.88749617,,,
02001722219000281000000000U5,73905,EL GRAN TACO,,Restaurantes con servicio de preparación de tacos y tortas,0 a 5 personas,CALLE,SEXTA (PERIFERICO),0,0,MAESTROS,22840,"ENSENADA, Ensenada, BAJA CALIFORNIA",,,,Fijo,-116.58263827,31.86680947,,,
02002722219009762000000000U3,57908,EL GRAN TAQUITO,,Restaurantes con servicio de preparación de tacos y tortas,0 a 5 personas,CALLE,JOSE MARIA MORELOS Y PAVON,321,,FRACC RIO NUEVO,21100,"MEXICALI, Mexicali, BAJA CALIFORNIA",6865524684,,,Fijo,-115.48891111,32.66105147,,,
02002722514007501000000000U1,6914415,EL GUERO MARTIN,,Restaurantes con servicio de preparación de tacos y tortas,0 a 5 personas,AVENIDA,REPUBLICA DE BRASIL,0,0,FRACC ALIANZA PARA LA PRODUCCION,21229,"MEXICALI, Mexicali, BAJA CALIFORNIA",,,,Semifijo,-115.40238273,32.66934528,,,
02002722514005301000000000U8,6940860,EL GUERO TACOS DE GUISADO,,Restaurantes con servicio de preparación de tacos y tortas,0 a 5 personas,BOULEVARD,ANAHUAC,,,JUVETUD DEPORTIVA 2000,21380,"MEXICALI, Mexicali, BAJA CALIFORNIA",,,,Fijo,-115.47814256,32.59988209,,,
02002722110000723000000000U5,70644,EL HUARACHON,KANOKA DE BC SA DE CV,Restaurantes con servicio de preparación de tacos y tortas,11 a 30 personas,CALZADA,INDEPENDENCIA,303,,SANTA TERESA,21270,"MEXICALI, Mexicali, BAJA CALIFORNIA",6865679254,,,Fijo,-115.44397569,32.63851588,,,
02002722219011683001000000S7,6189644,EL HUARACHON,PROCESADORA INDUSTRIAL ALIMENTICIA SA DE CV,Restaurantes con servicio de preparación de tacos y tortas,11 a 30 personas,CALZADA,MANUEL GOMEZ MORIN (PERIFERICO ORIENTE),392,,AVENIDA RAFAEL BUELNA,21126,"MEXICALI, Mexicali, BAJA CALIFORNIA",6865669595,ELHUARACHON@GMAIL.COM,,Fijo,-115.41407914,32.66229104,,,
02002722514006082000000000U3,8320850,EL HUARACHON,PROCESADORA INDUSTRIAL ALIMENTICIA SA DE CV,Restaurantes con servicio de preparación de tacos y tortas,6 a 10 personas,BOULEVARD,LAZARO CARDENAS,700,,JARDINES DEL LAGO,21330,"MEXICALI, Mexicali, BAJA CALIFORNIA",,,,Fijo,-115.48187447,32.62395405,,,
02004722219000701000000000U6,153411,EL KIOSKO,,Restaurantes con servicio de preparación de tacos y tortas,0 a 5 personas,AVENIDA,PASEO DE LOS HEROES,9415,0,ZONA URBANA RIO TIJUANA,22010,"TIJUANA, Tijuana, BAJA CALIFORNIA",,,,Fijo,-117.02318498,32.52818539,CENTRO Y PLAZA COMERCIAL,PLAZA DEL ZAPATO,9415
02004722212003991001000000U5,154757,EL LUGAR TORTAS Y BURRITOS,,Restaurantes con servicio de preparación de tacos y tortas,0 a 5 personas,CALLE,PASEO SANTA FE,10613,,PORTICOS DE SAN ANTONIO,22709,"TIJUANA, Tijuana, BAJA CALIFORNIA",6649740677,,,Fijo,-117.03570139,32.44294926,,,
02002722219010212001000000U6,73148,EL NUEVO TECOLOTE,,Restaurantes con servicio de preparación de tacos y tortas,11 a 30 personas,CALLE,RIO MOCORITO,,,COMPUERTAS,21218,"MEXICALI, Mexicali, BAJA CALIFORNIA",6862531806,,,Fijo,-115.43556868,32.66359958,,,
02002722212007913001000000U9,66270,EL NUEVO TECOLOTE,,Restaurantes con servicio de preparación de tacos y tortas,11 a 30 personas,CALZADA,CALZADA DE LAS AMERICAS,390,,CUAUHTEMOC SUR,21200,"MEXICALI, Mexicali, BAJA CALIFORNIA",6865643241,,,Fijo,-115.44399054,32.66273581,,,
02005722212001181000000000U2,140568,EL PAISANO 2,,Restaurantes con servicio de preparación de tacos y tortas,0 a 5 personas,CALLE,FAUSTINO ALVARADO,1390,0,LUCIO BLANCO,22706,"PLAYAS DE ROSARITO, Playas de Rosarito, BAJA CALIFORNIA",,,,Fijo,-117.05647369,32.37633257,,,
02004722514007151000000000U1,8316829,EL PAISANO POBLANO,EL PAISANO POBLANO ,Restaurantes con servicio de preparación de tacos y tortas,0 a 5 personas,AVENIDA,AVENIDA DE LAS FERIAS (INDEPENDENCIA),11727,7,HIPODROMO,22034,"TIJUANA, Tijuana, BAJA CALIFORNIA",,,,Fijo,-116.99728685,32.49779295,CENTRO Y PLAZA COMERCIAL,PLAZA LOS FAROLES,7
02001722219000051001000000U2,134589,EL PANDITA RESTAURANTE,,Restaurantes con servicio de preparación de tacos y tortas,6 a 10 personas,CALLE,NUEVE,216,,BUSTAMANTE,22840,"ENSENADA, Ensenada, BAJA CALIFORNIA",6461763121,,,Fijo,-116.60589837,31.86601030,,,
02003722219000721001000000U6,102045,EL PATITO #2,,Restaurantes con servicio de preparación de tacos y tortas,6 a 10 personas,CALZADA,ANAHUAC ESTE,8,0,CUAHUTEMOC,21470,"TECATE, Tecate, BAJA CALIFORNIA",,,,Fijo,-116.61029469,32.57000060,,,
02002722514009361000000000U8,9339647,EL PERICO LOCO ASADERO,,Restaurantes con servicio de preparación de tacos y tortas,0 a 5 personas,CALZADA,ROSA DEL DESIERTO,4629,,VALLE DEL PEDREGAL,,"MEXICALI, Mexicali, BAJA CALIFORNIA",6861728126,,,Fijo,-115.35898274,32.57805945,"TIANGUIS, BAZAR O PULGA",LAS PALMAS,242 A
02002722514006331000000000U4,8728002,EL PRIMO DE LOS ALCATRACES,,Restaurantes con servicio de preparación de tacos y tortas,0 a 5 personas,CALZADA,CASTELLON,1643,0,HIDALGO,21389,"MEXICALI, Mexicali, BAJA CALIFORNIA",,,,Fijo,-115.45818005,32.61378711,,,
02004722219016402010000000U3,155562,EL REY CARNITAS MICHOACAN,,Restaurantes con servicio de preparación de tacos y tortas,0 a 5 personas,BOULEVARD,LAZARO CARDENAS,785,490,LA MESA,22140,"TIJUANA, Tijuana, BAJA CALIFORNIA",,,,Fijo,-116.96674307,32.49959675,"TIANGUIS, BAZAR O PULGA",SWAP MEET LAZARO CARDENAS 5 Y 10,490
02001722219005271000000000U1,99377,EL REY DEL TACO,,Restaurantes con servicio de preparación de tacos y tortas,0 a 5 personas,CALZADA,JOSE MARIA MORELOS Y PAVON,0,0,CHAPULTEPEC,22875,"ENSENADA, Ensenada, BAJA CALIFORNIA",,,,Fijo,-116.60056796,31.78307335,,,
02001722514001741001000000U1,99196,EL RINCON SINALOENSE,,Restaurantes con servicio de preparación de tacos y tortas,6 a 10 personas,AVENIDA,CARRETERA TRANSPENINSULAR,0,0,MANEADERO,22790,"RODOLFO SÁNCHEZ TABOADA (MANEADERO), Ensenada, BAJA CALIFORNIA",6461375459,,,Fijo,-116.57925166,31.73025738,,,
02002722514009241000000000U2,9252820,EL SASON DE PRIMI,,Restaurantes con servicio de preparación de tacos y tortas,0 a 5 personas,CALLE,NOVENA,462,,VILLA DEL PALMAR,21378,"MEXICALI, Mexicali, BAJA CALIFORNIA",,,,Fijo,-115.38779045,32.62489431,,,
02002722514001481000000000U2,85413,EL SAZON DE ELSA,,Restaurantes con servicio de preparación de tacos y tortas,0 a 5 personas,AVENIDA,RIO SANTA MARIA,1143,0,FRACC BUGAMBILIAS,21395,"MEXICALI, Mexicali, BAJA CALIFORNIA",6863523911,,,Fijo,-115.37475851,32.60074727,,,
02002722514009271000000000U9,9252828,EL SAZON DE LA BUELA MATE,,Restaurantes con servicio de preparación de tacos y tortas,0 a 5 personas,CALLE,NOVENA,,,VILLA DEL PALMAR,21378,"MEXICALI, Mexicali, BAJA CALIFORNIA",,,,Semifijo,-115.38749291,32.62405434,,,
02004722514009062000000000U8,8485550,EL SINALOENSE,,Restaurantes con servicio de preparación de tacos y tortas,6 a 10 personas,CALLE,CHURUBUSCO,15,,TOMAS AQUINO,22414,"TIJUANA, Tijuana, BAJA CALIFORNIA",6646241067,,,Fijo,-116.98592340,32.52867002,,,
02002722514005731000000000U6,7633557,EL SOLAR DE MICHOACAN,TACOS ,Restaurantes con servicio de preparación de tacos y tortas,0 a 5 personas,BOULEVARD,ANAHUAC,,,QUINTAS DEL REY,21355,"MEXICALI, Mexicali, BAJA CALIFORNIA",6861399666,,,Fijo,-115.47442517,32.58867588,,,
02005722514001031000000000U8,8552982,EL SURFING MONKEY,,Restaurantes con servicio de preparación de tacos y tortas,0 a 5 personas,CARRETERA,LOCALIDAD 800,,,DON TOMAS CAMPO,22710,"LAS ROCAS [HOTEL], Playas de Rosarito, BAJA CALIFORNIA",6462454897,,,Fijo,-116.98620639,32.26010305,,,
02002722514006451000000000U0,8728365,EL TACAZO,,Restaurantes con servicio de preparación de tacos y tortas,0 a 5 personas,CALLE,AGRIPINO VILLASEÑOR,0,0,CENTRO,21800,"CIUDAD COAHUILA (KILÓMETRO CINCUENTA Y SIETE), Mexicali, BAJA CALIFORNIA",6531320201,,,Fijo,-114.99768653,32.19803109,,,
02001722219005292010000000U7,77551,EL TACO DE HUICHILOPOSTLI,,Restaurantes con servicio de preparación de tacos y tortas,0 a 5 personas,CALLE,CALLE DE LAS ROSAS,242,,VALLE VERDE,22839,"ENSENADA, Ensenada, BAJA CALIFORNIA",,,,Fijo,-116.60525110,31.88495378,,,
02004722514008701000000000U2,6977705,EL TACO MONQUIERES,,Restaurantes con servicio de preparación de tacos y tortas,0 a 5 personas,AVENIDA,PASEO A PLAYAS DE TIJUANA,334,,SECC MONUMENTAL,22205,"TIJUANA, Tijuana, BAJA CALIFORNIA",664233702,,,Fijo,-117.11767247,32.53291887,,,
02004722514009452000000000U1,9154460,EL TACO VELOZ,,Restaurantes con servicio de preparación de tacos y tortas,6 a 10 personas,CALLE,GUERRERO,,,TORRES DEL MATAMOROS 1 Y 2 RINCONADA,22470,"TIJUANA, Tijuana, BAJA CALIFORNIA",6646109685,,,Fijo,-116.89308766,32.54711848,,,
02001722516000431000000000U5,6908761,EL TAPATIO,,Restaurantes con servicio de preparación de tacos y tortas,0 a 5 personas,BOULEVARD,ZERTUCHE,,,VILLA DEL MAR,22785,"ENSENADA, Ensenada, BAJA CALIFORNIA",,,,Fijo,-116.58676386,31.79173330,,,
02002722219010722001000000U4,57407,EL TAQUITO DE ORO,,Restaurantes con servicio de preparación de tacos y tortas,11 a 30 personas,CALLE,JOSE MARIA MORELOS Y PAVON,334,0,FRACC RIO NUEVO,21100,"MEXICALI, Mexicali, BAJA CALIFORNIA",6865433779,CESESARVM_734@HOTMAIL.COM,,Fijo,-115.48914429,32.66111877,,,
02002722514005812000000000S4,8319471,EL TASAJO,,Restaurantes con servicio de preparación de tacos y tortas,6 a 10 personas,CALZADA,INDEPENDENCIA,301,,SANTA TERESA,21270,"MEXICALI, Mexicali, BAJA CALIFORNIA",,,,Fijo,-115.44385813,32.63854679,,,
02002722514004652000000000U5,6713909,EL TASAJO,,Restaurantes con servicio de preparación de tacos y tortas,6 a 10 personas,CALZADA,CUAUHTEMOC (AVIACION),602,,PRO HOGAR,21240,"MEXICALI, Mexicali, BAJA CALIFORNIA",016862525996,ELGRILL@GMAIL.COM,,Fijo,-115.43933793,32.65803366,,,
02002722514006601000000000U0,8112870,EL TORTON DEL ABEL,,Restaurantes con servicio de preparación de tacos y tortas,0 a 5 personas,AVENIDA,CURAZAD,2000,,TELEVISORA,21380,"MEXICALI, Mexicali, BAJA CALIFORNIA",,,,Fijo,-115.48052748,32.61355111,,,
02002722212003781000000000U4,52456,EL ZACATECANO,,Restaurantes con servicio de preparación de tacos y tortas,0 a 5 personas,AVENIDA,JOSE MARIA PINO SUAREZ,0,0,NUEVA,21100,"MEXICALI, Mexicali, BAJA CALIFORNIA",,,,Semifijo,-115.45313851,32.66386255,,,
02001722514003491000000000U1,8301323,ELABORACION DE BURRITOS,,Restaurantes con servicio de preparación de tacos y tortas,0 a 5 personas,CALLE,ANDRES QUINTANA ROO,182,0,RODOLFO SANCHES TABOADA MANEADERO,22790,"RODOLFO SÁNCHEZ TABOADA (MANEADERO), Ensenada, BAJA CALIFORNIA",,,,Fijo,-116.57030203,31.70760611,,,
02001812410000321010000000S5,101441,ESTACIONAMIENTO,TACOS CHARY ,Restaurantes con servicio de preparación de tacos y tortas,0 a 5 personas,AVENIDA,PEDRO LOYOLA,,,ACAPULCO,22890,"ENSENADA, Ensenada, BAJA CALIFORNIA",,,,Fijo,-116.60575648,31.83348749,,,
02002722514006661000000000S4,8434275,ESTACIONAMIENTO ASADERO LAS BRASAS,GRUPO MALIROCA SC DE RL DE CV,Restaurantes con servicio de preparación de tacos y tortas,0 a 5 personas,BOULEVARD,ANAHUAC,801,,MONTE ALBAN,21340,"MEXICALI, Mexicali, BAJA CALIFORNIA",,KARLAGCALDERAS@GMAIL.COM,,Fijo,-115.47894629,32.62035912,,,
02005812130000121000000000U4,8304735,ESTACIONAMIENTO BAÑOS Y REGADERAS TACOS AND BEERS,,Sanitarios públicos y bolerías,0 a 5 personas,CALLE,MARTIRES DE PINOS ALTOS,,,QUINTAS DEL MAR,22703,"PLAYAS DE ROSARITO, Playas de Rosarito, BAJA CALIFORNIA",,,,Fijo,-117.06561164,32.35195022,,,
02002722512001221000000000S6,6941375,ESTACIONAMIENTO DE HUMBERTO FISH TACOS,,Restaurantes con servicio de preparación de pescados y mariscos,0 a 5 personas,CALLE,MAR BALTICO,0,0,ANAHUAC,21060,"MEXICALI, Mexicali, BAJA CALIFORNIA",,,,Fijo,-115.47381988,32.63637277,,,
02002812410001321000000000U2,9286558,ESTACIONAMIENTO TACOS,ESTACIONAMIENTO ,Estacionamientos y pensiones para vehículos automotores,0 a 5 personas,CALLE,NOVENA,,,ORQUIDEAS,21399,"MEXICALI, Mexicali, BAJA CALIFORNIA",,,,Fijo,-115.38887961,32.60575624,,,
02002812410000901000053370S2,7634006,ESTACIONAMIENTO TACOS ACATLAN DE JUAREZ,ASADERO ACATLAN DE JUAREZ SA DE CV,Restaurantes con servicio de preparación de tacos y tortas,0 a 5 personas,CALZADA,INDEPENDENCIA,,,NUEVA ESPERANZA,21050,"MEXICALI, Mexicali, BAJA CALIFORNIA",,,,Fijo,-115.49015965,32.64416074,,,
02002812410000851000000000S9,6929998,ESTACIONAMIENTO TACOS LOS BROTHER,,Restaurantes con servicio de preparación de tacos y tortas,0 a 5 personas,CALLE,SALTILLO,,,ESPERANZA,21140,"MEXICALI, Mexicali, BAJA CALIFORNIA",,,,Fijo,-115.48413512,32.64112941,,,
